!AIVDO,1,1,,,B39cWA00EP@m5uVE;ojwWwm5kP06,0*3F
$IIXTE,A,A,0.84,R,N,A,*2A
$IIRMB,A,0.85,R,,,,,,,46.60,308.,,A,A*62
$IIDPT,0000.0,,*72
$IIDBT,0000.0,f,0000.0,M,,*79
$IIVLW,4592.0,N,036.39,N*48
$IIVHW,,,307.,M,08.08,N,14.97,K*10
$IIVWR,077.,R,18.1,N,09.3,M,033.5,K*7E
$IIMWD,,,050.,M,18.0,N,09.3,M*08
$IIMTA,20.6,C*01
$IIMTW,21.3,C*13
$IIVWT,103.,R,18.0,N,09.3,M,033.3,K*7D
$IIHDG,307.,,,,*7D
$IIHDM,307.,M*16
!AIVDM,1,1,,A,4@2A``1ujGUrb14u5PI:tqW00D10,0*7C
!AIVDM,1,1,,B,13=?Sj002;11b8pIEt4<sbK@0<0L,0*25
!AIVDO,1,1,,,B39cWA00Eh@m5gVE;pbvswmUkP06,0*47
$IIGLL,4415.421,N,01442.357,E,055842,A,A*5F
$IIZDA,055842,15,09,2012,,*5D
$IIVTG,307.,T,,M,08.5,N,15.8,K,A*2F
$IIXTE,A,A,0.84,R,N,A,*2A
$IIRMB,A,0.85,R,,,,,,,46.60,308.,,A,A*62
$IIDPT,0000.0,,*72
$IIDBT,0000.0,f,0000.0,M,,*79
$IIVLW,4592.0,N,036.39,N*48
$IIVHW,,,307.,M,08.09,N,14.99,K*1F
!AIVDM,1,1,,A,15VB;@001=12v:bIBg2EA4=H00Rg,0*42
!AIVDM,1,1,,A,D@2A``0c`Nfp,0*3A
!AIVDO,1,1,,,B39cWA00F@@m5QVE;qVw;wn5kP06,0*45
!AIVDM,1,1,,A,4@2A`UQujGUrc13d20IWT27004c`,0*45
$IIVWR,077.,R,18.0,N,09.3,M,033.3,K*79
$IIMWD,,,050.,M,17.9,N,09.2,M*0F
$IIMTA,20.6,C*01
$IIMTW,21.3,C*13
$IIVWT,103.,R,17.9,N,09.2,M,033.2,K*7B
$IIHDG,306.,,,,*7C
$IIHDM,306.,M*17
$IIGLL,4415.427,N,01442.346,E,055844,A,A*5F
$IIZDA,055844,15,09,2012,,*5B
$IIVTG,307.,T,,M,08.5,N,15.8,K,A*2F
$IIXTE,A,A,0.84,R,N,A,*2A
$IIRMB,A,0.85,R,,,,,,,46.60,308.,,A,A*62
$IIDPT,0000.0,,*72
$IIDBT,0000.0,f,0000.0,M,,*79
$IIVLW,4592.0,N,036.40,N*46
$IIVHW,,,306.,M,08.14,N,15.08,K*1B
$IIVWR,078.,R,18.3,N,09.4,M,033.9,K*78
!AIVDO,1,1,,,B39cWA00F@@m5CVE;rRwkwnUkP06,0*60
$IIMWD,,,050.,M,18.4,N,09.5,M*0A
$IIMTA,20.6,C*01
$IIMTW,21.3,C*13
$IIVWT,104.,R,18.4,N,09.5,M,034.1,K*7D
$IIHDG,306.,,,,*7C
$IIHDM,306.,M*17
$IIGLL,4415.427,N,01442.346,E,055844,A,A*5F
$IIZDA,055844,15,09,2012,,*5B
$IIVTG,306.,T,,M,09.1,N,16.9,K,A*29
$IIXTE,A,A,0.84,R,N,A,*2A
!AIVDO,1,1,,,B39cWA00F0@m55VE;sNw7wo5kP06,0*46
$IIRMB,A,0.85,R,,,,,,,46.60,308.,,A,A*62
$IIDPT,0000.0,,*72
$IIDBT,0000.0,f,0000.0,M,,*79
$IIVLW,4592.0,N,036.40,N*46
$IIVHW,,,305.,M,08.17,N,15.13,K*11
$IIVWR,079.,R,18.4,N,09.5,M,034.1,K*70
$IIMWD,,,050.,M,18.6,N,09.6,M*0B
$IIMTA,20.6,C*01
$IIMTW,21.3,C*13
$IIVWT,104.,R,18.6,N,09.6,M,034.4,K*79
$IIHDG,305.,,,,*7F
$IIHDM,305.,M*14
$IIGLL,4415.430,N,01442.340,E,055846,A,A*5D
$IIZDA,055846,15,09,2012,,*59
$IIVTG,306.,T,,M,08.9,N,16.5,K,A*2C
$IIXTE,A,A,0.84,R,N,A,*2A
$IIRMB,A,0.85,R,,,,,,,46.60,308.,,A,A*62
$IIDPT,0000.0,,*72
!AIVDM,1,1,,A,13SUtFUP4G130u8IFIL5KgwL0D0<,0*49
$IIDBT,0000.0,f,0000.0,M,,*79
!AIVDO,1,1,,,B39cWA00EP@m4o6E;tBtkwoUkP06,0*2A
$IIVLW,4592.0,N,036.40,N*46
$IIVHW,,,304.,M,08.19,N,15.17,K*1A
$IIVWR,082.,R,18.3,N,09.4,M,033.9,K*7D
$IIMWD,,,050.,M,18.7,N,09.6,M*0A
$IIMTA,20.6,C*01
$IIMTW,21.3,C*13
$IIVWT,105.,R,18.7,N,09.6,M,034.6,K*7B
$IIHDG,302.,,,,*78
$IIHDM,302.,M*13
$IIGLL,4415.430,N,01442.340,E,055846,A,A*5D
$IIZDA,055846,15,09,2012,,*59
$IIVTG,305.,T,,M,08.9,N,16.5,K,A*2F
$IIXTE,A,A,0.84,R,N,A,*2A
!AIVDO,1,1,,,B39cWA00F@@m4`6E;u6tSwp5kP06,0*04
$IIRMB,A,0.85,R,,,,,,,46.60,308.,,A,A*62
$IIDPT,0000.0,,*72
$IIDBT,0000.0,f,0000.0,M,,*79
$IIVLW,4592.0,N,036.41,N*47
$IIVHW,,,301.,M,08.22,N,15.22,K*11
$IIVWR,083.,R,18.2,N,09.4,M,033.7,K*73
!AIVDM,1,1,,B,D@2A`UPsDNfp,0*58
!AIVDO,1,1,,,B39cWA00CP@m4K6E;unt7wpUkP06,0*66
$IIMWD,,,049.,M,18.9,N,09.7,M*0D
$IIMTA,20.6,C*01
$IIMTW,21.3,C*13
$IIVWT,108.,R,19.0,N,09.8,M,035.2,K*7B
$IIHDG,301.,,,,*7B
$IIHDM,301.,M*10
$IIGLL,4415.432,N,01442.334,E,055848,A,A*52
$IIZDA,055848,15,09,2012,,*57
$IIVTG,301.,T,,M,08.6,N,15.9,K,A*2B
$IIXTE,A,A,0.84,R,N,A,*2A
$IIRMB,A,0.85,R,,,,,,,46.60,308.,,A,A*62
$IIDPT,0000.0,,*72
$IIDBT,0000.0,f,0000.0,M,,*79
$IIVLW,4592.0,N,036.41,N*47
$IIVHW,,,302.,M,08.23,N,15.24,K*15
$IIVWR,082.,R,18.1,N,09.3,M,033.5,K*74
$IIMWD,,,049.,M,19.0,N,09.8,M*0A
$IIMTA,20.6,C*01
$IIMTW,21.2,C*12
!AIVDO,1,1,,,B39cWA00D@@m4=VE;vbvCwq5kP06,0*7F
$IIVWT,108.,R,18.8,N,09.7,M,034.8,K*76
$IIHDG,302.,,,,*78
$IIHDM,303.,M*12
$IIGLL,4415.432,N,01442.334,E,055850,A,A*5B
$IIZDA,055850,15,09,2012,,*5E
$IIVTG,301.,T,,M,08.6,N,15.9,K,A*2B
$IIXTE,A,A,0.84,R,N,A,*2A
$IIRMB,A,0.85,R,,,,,,,46.60,308.,,A,A*62
$IIDPT,0000.0,,*72
$IIDBT,0000.0,f,0000.0,M,,*79
$IIVLW,4592.0,N,036.41,N*47
$IIVHW,,,304.,M,08.24,N,15.25,K*15
$IIVWR,082.,R,18.1,N,09.3,M,033.5,K*74
$IIMWD,,,050.,M,18.8,N,09.7,M*04
!AIVDO,1,1,,,B39cWA00E@@m40VE;wW0SwqUkP06,0*71
$IIMTA,20.6,C*01
$IIMTW,21.2,C*12
$IIVWT,108.,R,18.8,N,09.7,M,034.8,K*76
$IIHDG,305.,,,,*7F
$IIHDM,305.,M*14
$IIGLL,4415.435,N,01442.329,E,055850,A,A*50
$IIZDA,055850,15,09,2012,,*5E
$IIVTG,306.,T,,M,08.5,N,15.8,K,A*2E
$IIXTE,A,A,0.84,R,N,A,*2A
$IIRMB,A,0.85,R,,,,,,,46.60,308.,,A,A*62
$IIDPT,0000.0,,*72
$IIDBT,0000.0,f,0000.0,M,,*79
$IIVLW,4592.0,N,036.41,N*47
$IIVHW,,,306.,M,08.24,N,15.25,K*17
!AIVDO,1,1,,,B39cWA00DP@m3kVE<0NwWwr5kP06,0*45
$IIVWR,081.,R,18.1,N,09.3,M,033.5,K*77
$IIMWD,,,053.,M,18.8,N,09.7,M*07
$IIMTA,20.6,C*01
$IIMTW,21.2,C*12
!AIVDM,1,1,,B,4@2A``1ujGUrl14u5PI:tqW00D10,0*71
$IIVWT,108.,R,18.8,N,09.7,M,034.8,K*76
$IIHDG,306.,,,,*7C
$IIHDM,306.,M*17
!AIVDM,1,1,,B,13e1k<001i13Nw>I>K5dF9mV2HO8,0*5D
!AIVDO,1,1,,,B39cWA00E@@m3V6E<1K0;wrUkP06,0*46
$IIGLL,4415.438,N,01442.324,E,055852,A,A*52
$IIZDA,055852,15,09,2012,,*5C
$IIVTG,306.,T,,M,08.5,N,15.8,K,A*2E
$IIXTE,A,A,0.84,R,N,A,*2A
$IIRMB,A,0.85,R,,,,,,,46.60,308.,,A,A*62
$IIDPT,0000.0,,*72
$IIDBT,0000.0,f,0000.0,M,,*79
$IIVLW,4592.0,N,036.42,N*44
$IIVHW,,,306.,M,08.24,N,15.25,K*17
$IIVWR,081.,R,18.0,N,09.3,M,033.3,K*70
$IIMWD,,,053.,M,18.5,N,09.5,M*08
$IIMTA,20.6,C*01
$IIMTW,21.2,C*12
$IIVWT,107.,R,18.5,N,09.5,M,034.3,K*7D
$IIHDG,305.,,,,*7F
!AIVDM,1,1,,B,15VB;@001=12vADIBfK5B4=d0<0W,0*65
!AIVDO,1,1,,,B39cWA00EP@m3H6E<2BwCws5kP06,0*1C
$IIHDM,305.,M*14
$IIGLL,4415.438,N,01442.324,E,055852,A,A*52
$IIZDA,055852,15,09,2012,,*5C
$IIVTG,308.,T,,M,08.5,N,15.8,K,A*20
$IIXTE,A,A,0.84,R,N,A,*2A
$IIRMB,A,0.85,R,,,,,,,46.60,308.,,A,A*62
$IIDPT,0000.0,,*72
$IIDBT,0000.0,f,0000.0,M,,*79
$IIVLW,4592.0,N,036.42,N*44
$IIVHW,,,305.,M,08.24,N,15.25,K*14
$IIVWR,080.,R,17.9,N,09.2,M,033.2,K*77
$IIMWD,,,051.,M,18.4,N,09.5,M*0B
$IIMTA,20.6,C*01
$IIMTW,21.3,C*13
$IIVWT,106.,R,18.4,N,09.5,M,034.1,K*7F
$IIHDG,305.,,,,*7F
$IIHDM,305.,M*14
!AIVDM,1,1,,B,4@2A`UQujGUrm13d20IWT27004c`,0*48
!AIVDM,1,1,,B,13=?Sj002;11b08IEuS<sbKb0000,0*51
!AIVDO,1,1,,,B39cWA00D@@m3;6E<36ugwsUkP06,0*4D
$IIGLL,4415.441,N,01442.318,E,055854,A,A*55
$IIZDA,055854,15,09,2012,,*5A
$IIVTG,306.,T,,M,08.6,N,15.9,K,A*2C
$IIXTE,A,A,0.84,R,N,A,*2A
$IIRMB,A,0.85,R,,,,,,,46.60,308.,,A,A*62
$IIDPT,0000.0,,*72
$IIDBT,0000.0,f,0000.0,M,,*79
$IIVLW,4592.0,N,036.42,N*44
$IIVHW,,,305.,M,08.24,N,15.26,K*17
!AIVDO,1,1,,,B39cWA00Eh@m2tVE<3vuGwt5kP06,0*4D
$IIVWR,080.,R,17.6,N,09.1,M,032.6,K*7E
$IIMWD,,,052.,M,18.1,N,09.3,M*0B
$IIMTA,20.6,C*01
$IIMTW,21.3,C*13
$IIVWT,107.,R,18.1,N,09.3,M,033.5,K*7E
$IIHDG,305.,,,,*7F
$IIHDM,305.,M*14
$IIGLL,4415.441,N,01442.318,E,055856,A,A*57
$IIZDA,055856,15,09,2012,,*58
$IIVTG,306.,T,,M,08.6,N,15.9,K,A*2C
$IIXTE,A,A,0.84,R,N,A,*2A
$IIRMB,A,0.85,R,,,,,,,46.60,308.,,A,A*62
$IIDPT,0000.0,,*72
$IIDBT,0000.0,f,0000.0,M,,*79
$IIVLW,4592.0,N,036.42,N*44
$IIVHW,,,304.,M,08.25,N,15.28,K*19
$IIVWR,081.,R,17.6,N,09.1,M,032.6,K*7F
$IIMWD,,,051.,M,18.0,N,09.3,M*09
$IIMTA,20.6,C*01
$IIMTW,21.3,C*13
!AIVDO,1,1,,,B39cWA00Eh@m2eVE<4fskwtUkP06,0*01
$IIVWT,107.,R,18.0,N,09.3,M,033.3,K*79
$IIHDG,302.,,,,*78
$IIHDM,302.,M*13
$IIGLL,4415.443,N,01442.313,E,055856,A,A*5E
$IIZDA,055856,15,09,2012,,*58
$IIVTG,302.,T,,M,08.7,N,16.1,K,A*22
$IIXTE,A,A,0.84,R,N,A,*2A
$IIRMB,A,0.85,R,,,,,,,46.60,308.,,A,A*62
$IIDPT,0000.0,,*72
$IIDBT,0000.0,f,0000.0,M,,*79
$IIVLW,4592.0,N,036.43,N*45
!AIVDM,1,1,,A,13SUtFUP4I131D@IFFo5N?wh0D0<,0*5A
!AIVDO,1,1,,,B39cWA00E@@m2O6E<5Rt7wu5kP06,0*6C
$IIVHW,,,300.,M,08.25,N,15.28,K*1D
$IIVWR,080.,R,17.8,N,09.2,M,033.0,K*74
$IIMWD,,,048.,M,18.4,N,09.5,M*03
$IIMTA,20.6,C*01
$IIMTW,21.3,C*13
$IIVWT,107.,R,18.4,N,09.5,M,034.1,K*7E
$IIHDG,300.,,,,*7A
$IIHDM,300.,M*11
$IIGLL,4415.446,N,01442.307,E,055858,A,A*50
$IIZDA,055858,15,09,2012,,*56
$IIVTG,301.,T,,M,08.6,N,15.9,K,A*2B
$IIXTE,A,A,0.84,R,N,A,*2A
$IIRMB,A,0.85,R,,,,,,,46.60,308.,,A,A*62
!AIVDO,1,1,,,B39cWA00E0@m2A6E<6Bt;wuUkP06,0*6D
$IIDPT,0000.0,,*72
$IIDBT,0000.0,f,0000.0,M,,*79
$IIVLW,4592.0,N,036.43,N*45
$IIVHW,,,300.,M,08.25,N,15.27,K*12
$IIVWR,080.,R,17.5,N,09.0,M,032.4,K*7E
$IIMWD,,,046.,M,18.2,N,09.4,M*0A
$IIMTA,20.6,C*01
$IIMTW,21.3,C*13
$IIVWT,107.,R,18.2,N,09.4,M,033.7,K*78
$IIHDG,301.,,,,*7B
$IIHDM,301.,M*10
$IIGLL,4415.446,N,01442.307,E,055858,A,A*50
$IIZDA,055858,15,09,2012,,*56
!AIVDM,1,1,,B,D@2A``0O4Nfp,0*41
!AIVDO,1,1,,,B39cWA00E0@m236E<76twwP5kP06,0*63
$IIVTG,301.,T,,M,08.6,N,15.9,K,A*2B
$IIXTE,A,A,0.84,R,N,A,*2A
$IIRMB,A,0.85,R,,,,,,,46.60,308.,,A,A*62
$IIDPT,0000.0,,*72
$IIDBT,0000.0,f,0000.0,M,,*79
$IIVLW,4592.0,N,036.43,N*45
$IIVHW,,,301.,M,08.24,N,15.26,K*13
$IIVWR,079.,R,17.2,N,08.8,M,031.9,K*78
$IIMWD,,,047.,M,17.5,N,09.0,M*07
$IIMTA,20.6,C*01
$IIMTW,21.3,C*13
!AIVDO,1,1,,,B39cWA00Dh@m1mVE<7vwWwPUkP06,0*04
$IIVWT,106.,R,17.5,N,09.0,M,032.4,K*77
$IIHDG,302.,,,,*78
$IIHDM,302.,M*13
$IIGLL,4415.448,N,01442.301,E,055900,A,A*54
$IIZDA,055900,15,09,2012,,*5A
$IIVTG,303.,T,,M,08.4,N,15.6,K,A*24
$IIXTE,A,A,0.84,R,N,A,*2A
$IIRMB,A,0.85,R,,,,,,,46.60,308.,,A,A*62
$IIDPT,0000.0,,*72
$IIDBT,0000.0,f,0000.0,M,,*79
$IIVLW,4592.0,N,036.44,N*42
$IIVHW,,,304.,M,08.24,N,15.25,K*15
$IIVWR,077.,R,17.5,N,09.0,M,032.4,K*76
$IIMWD,,,048.,M,17.5,N,09.0,M*08
$IIMTA,20.6,C*01
$IIMTW,21.3,C*13
$IIVWT,104.,R,17.5,N,09.0,M,032.4,K*75
$IIHDG,304.,,,,*7E
$IIHDM,304.,M*15
!AIVDO,1,1,,,B39cWA00E0@m1`6E<8nwkwQ5kP06,0*7A
$IIGLL,4415.451,N,01442.296,E,055902,A,A*51
$IIZDA,055902,15,09,2012,,*58
$IIVTG,303.,T,,M,08.4,N,15.6,K,A*24
$IIXTE,A,A,0.84,R,N,A,*2A
!AIVDM,1,1,,A,4@2A``1ujGUs214u5PI:tqW00@1g,0*7E
$IIRMB,A,0.85,R,,,,,,,46.60,308.,,A,A*62
$IIDPT,0000.0,,*72
$IIDBT,0000.0,f,0000.0,M,,*79
$IIVLW,4592.0,N,036.44,N*42
$IIVHW,,,303.,M,08.22,N,15.23,K*12
$IIVWR,078.,R,17.8,N,09.2,M,033.0,K*73
!AIVDM,1,1,,A,13e1k<001i13NmTI>KvdF9l22D0O,0*0C
!AIVDM,1,1,,A,15VB;@001=12vGBIBepEBT<60D0V,0*64
!AIVDM,1,1,,A,D@2A`UP2LNfp,0*12
!AIVDO,1,1,,,B39cWA00Dh@m1K6E<9fwOwQUkP06,0*45
$IIMWD,,,048.,M,17.9,N,09.2,M*06
$IIMTA,20.6,C*01
$IIMTW,21.3,C*13
$IIVWT,105.,R,17.9,N,09.2,M,033.2,K*7D
$IIHDG,304.,,,,*7E
$IIHDM,304.,M*15
$IIGLL,4415.451,N,01442.296,E,055902,A,A*51
$IIZDA,055902,15,09,2012,,*58
$IIVTG,306.,T,,M,08.3,N,15.4,K,A*24
$IIXTE,A,A,0.84,R,N,A,*2A
$IIRMB,A,0.85,R,,,,,,,46.60,308.,,A,A*62
$IIDPT,0000.0,,*72
$IIDBT,0000.0,f,0000.0,M,,*79
$IIVLW,4592.0,N,036.44,N*42
!AIVDO,1,1,,B,B39cWA00Dh@m1K6E<9fwOwQUkP06,0*07
!AIVDO,1,1,,,B39cWA00C@@m1>6E<:NtgwR5kP06,0*7C
$IIVHW,,,303.,M,08.19,N,15.17,K*1D
$IIVWR,078.,R,17.9,N,09.2,M,033.2,K*70
$IIMWD,,,048.,M,18.1,N,09.3,M*00
$IIMTA,20.6,C*01
$IIMTW,21.3,C*13
$IIVWT,104.,R,18.1,N,09.3,M,033.5,K*7D
$IIHDG,303.,,,,*79
$IIHDM,303.,M*12
$IIGLL,4415.454,N,01442.291,E,055904,A,A*55
!AIVDO,1,1,,,B39cWA00Dh@m106E<;BuGwRUkP06,0*11
$IIZDA,055904,15,09,2012,,*5E
$IIVTG,306.,T,,M,08.2,N,15.2,K,A*23
$IIXTE,A,A,0.84,R,N,A,*2A
$IIRMB,A,0.85,R,,,,,,,46.60,308.,,A,A*62
$IIDPT,0000.0,,*72
$IIDBT,0000.0,f,0000.0,M,,*79
$IIVLW,4592.0,N,036.44,N*42
$IIVHW,,,302.,M,08.18,N,15.14,K*1E
$IIVWR,080.,R,17.9,N,09.2,M,033.2,K*77
$IIMWD,,,048.,M,18.2,N,09.4,M*04
$IIMTA,20.6,C*01
$IIMTW,21.3,C*13
$IIVWT,105.,R,18.2,N,09.4,M,033.7,K*7A
$IIHDG,302.,,,,*78
$IIHDM,302.,M*13
$IIGLL,4415.454,N,01442.291,E,055906,A,A*57
$IIZDA,055906,15,09,2012,,*5C
!AIVDO,1,1,,,B39cWA00Ch@m0jVE<<2t3wS5kP06,0*4E
$IIVTG,303.,T,,M,08.2,N,15.2,K,A*26
$IIXTE,A,A,0.84,R,N,A,*2A
$IIRMB,A,0.85,R,,,,,,,46.60,308.,,A,A*62
$IIDPT,0000.0,,*72
$IIDBT,0000.0,f,0000.0,M,,*79
$IIVLW,4592.0,N,036.45,N*43
$IIVHW,,,302.,M,08.16,N,15.11,K*15
$IIVWR,082.,R,17.7,N,09.1,M,032.8,K*73
$IIMWD,,,048.,M,18.3,N,09.4,M*05
$IIMTA,20.6,C*01
$IIMTW,21.3,C*13
$IIVWT,106.,R,18.4,N,09.5,M,034.1,K*7F
$IIHDG,302.,,,,*78
$IIHDM,302.,M*13
$IIGLL,4415.456,N,01442.285,E,055906,A,A*50
$IIZDA,055906,15,09,2012,,*5C
!AIVDO,1,1,,,B39cWA00DP@m0U6E<<jtcwSUkP06,0*46
$IIVTG,302.,T,,M,08.3,N,15.4,K,A*20
$IIXTE,A,A,0.84,R,N,A,*2A
$IIRMB,A,0.85,R,,,,,,,46.60,308.,,A,A*62
$IIDPT,0000.0,,*72
$IIDBT,0000.0,f,0000.0,M,,*79
$IIVLW,4592.0,N,036.45,N*43
!AIVDM,1,1,,B,13=?Sj002;11anhIEw9dsbJ:0000,0*35
!AIVDO,1,1,,,B39cWA00DP@m0GVE<=VucwT5kP06,0*6F
$IIVHW,,,302.,M,08.14,N,15.08,K*1F
$IIVWR,082.,R,17.5,N,09.0,M,032.4,K*7C
$IIMWD,,,050.,M,18.4,N,09.5,M*0A
$IIMTA,20.6,C*01
$IIMTW,21.2,C*12
$IIVWT,108.,R,18.2,N,09.4,M,033.7,K*77
$IIHDG,302.,,,,*78
$IIHDM,303.,M*12
$IIGLL,4415.456,N,01442.285,E,055908,A,A*5E
$IIZDA,055908,15,09,2012,,*52
$IIVTG,302.,T,,M,08.3,N,15.4,K,A*20
$IIXTE,A,A,0.84,R,N,A,*2A
$IIRMB,A,0.85,R,,,,,,,46.60,308.,,A,A*62
$IIDPT,0000.0,,*72
$IIDBT,0000.0,f,0000.0,M,,*79
$IIVLW,4592.0,N,036.45,N*43
$IIVHW,,,304.,M,08.14,N,15.07,K*16
$IIVWR,082.,R,17.6,N,09.1,M,032.6,K*7C
!AIVDM,1,1,,A,13SUtFUP4G131cHIFDIUN?v>0@5>,0*6B
!AIVDM,1,1,,A,33=?Sj002;11anhIEw9dsbJ@02qA,0*7C
!AIVDO,1,1,,,B39cWA00E@@m0:6E<>Nw;wTUkP06,0*42
$IIMWD,,,050.,M,18.2,N,09.4,M*0D
$IIMTA,20.6,C*01
$IIMTW,21.3,C*13
$IIVWT,108.,R,18.3,N,09.4,M,033.9,K*78
$IIHDG,303.,,,,*79
$IIHDM,303.,M*12
$IIGLL,4415.459,N,01442.280,E,055908,A,A*54
$IIZDA,055908,15,09,2012,,*52
$IIVTG,304.,T,,M,08.5,N,15.8,K,A*2C
$IIXTE,A,A,0.84,R,N,A,*2A
$IIRMB,A,0.85,R,,,,,,,46.60,308.,,A,A*62
$IIDPT,0000.0,,*72
$IIDBT,0000.0,f,0000.0,M,,*79
$IIVLW,4592.0,N,036.46,N*40
!AIVDO,1,1,,,B39cWA00E@@lwt6E<?Bv?wU5kP06,0*23
$IIVHW,,,303.,M,08.13,N,15.06,K*17
$IIVWR,082.,R,17.7,N,09.1,M,032.8,K*73
$IIMWD,,,051.,M,18.3,N,09.4,M*0D
$IIMTA,20.6,C*01
$IIMTW,21.3,C*13
$IIVWT,108.,R,18.3,N,09.4,M,033.9,K*78
$IIHDG,303.,,,,*79
$IIHDM,303.,M*12
$IIGLL,4415.459,N,01442.280,E,055910,A,A*5D
$IIZDA,055910,15,09,2012,,*5B
$IIVTG,304.,T,,M,08.5,N,15.8,K,A*2C
$IIXTE,A,A,0.84,R,N,A,*2A
$IIRMB,A,0.85,R,,,,,,,46.60,308.,,A,A*62
!AIVDO,1,1,,,B39cWA00E@@lwf6E<@6tkwUUkP06,0*0C
$IIDPT,0000.0,,*72
$IIDBT,0000.0,f,0000.0,M,,*79
$IIVLW,4592.0,N,036.46,N*40
$IIVHW,,,302.,M,08.14,N,15.07,K*10
$IIVWR,082.,R,17.8,N,09.2,M,033.0,K*76
$IIMWD,,,051.,M,18.4,N,09.5,M*0B
$IIMTA,20.6,C*01
$IIMTW,21.3,C*13
$IIVWT,108.,R,18.4,N,09.5,M,034.1,K*71
$IIHDG,301.,,,,*7B
$IIHDM,301.,M*10
$IIGLL,4415.461,N,01442.274,E,055910,A,A*5D
$IIZDA,055910,15,09,2012,,*5B
$IIVTG,304.,T,,M,08.6,N,15.9,K,A*2E
!AIVDM,1,1,,B,13e1k<001i13Nd`I>LkdEqlF2L0P,0*00
$IIXTE,A,A,0.84,R,N,A,*2A
!AIVDO,1,1,,,B39cWA00E@@lwOVE<@rt3wV5kP06,0*3A
$IIRMB,A,0.85,R,,,,,,,46.60,308.,,A,A*62
$IIDPT,0000.0,,*72
!AIVDM,1,1,,B,4@2A``1ujGUs<14u5PI:tqW00@7V,0*44
$IIDBT,0000.0,f,0000.0,M,,*79
$IIVLW,4592.0,N,036.46,N*40
$IIVHW,,,300.,M,08.14,N,15.07,K*12
$IIVWR,082.,R,17.8,N,09.2,M,033.0,K*76
$IIMWD,,,050.,M,18.4,N,09.5,M*0A
$IIMTA,20.6,C*01
$IIMTW,21.3,C*13
$IIVWT,108.,R,18.4,N,09.5,M,034.1,K*71
$IIHDG,301.,,,,*7B
$IIHDM,301.,M*10
!AIVDM,1,1,,B,15VB;@001=12vMrIBeBEBD:J0D0U,0*06
!AIVDO,1,1,,,B39cWA00DP@lwAVE<AbtswVUkP06,0*14
$IIGLL,4415.464,N,01442.269,E,055912,A,A*56
$IIZDA,055912,15,09,2012,,*59
$IIVTG,301.,T,,M,08.6,N,15.9,K,A*2B
$IIXTE,A,A,0.84,R,N,A,*2A
$IIRMB,A,0.85,R,,,,,,,46.60,308.,,A,A*62
$IIDPT,0000.0,,*72
$IIDBT,0000.0,f,0000.0,M,,*79
$IIVLW,4592.0,N,036.46,N*40
$IIVHW,,,302.,M,08.14,N,15.07,K*10
!AIVDM,1,1,,A,D@2A``2<`O6D,0*02
$IIVWR,081.,R,17.4,N,09.0,M,032.2,K*78
$IIMWD,,,049.,M,18.5,N,09.5,M*03
$IIMTA,20.6,C*01
$IIMTW,21.3,C*13
$IIVWT,107.,R,18.5,N,09.5,M,034.3,K*7D
!AIVDO,1,1,,,B39cWA00D0@lw46E<BJtgwW5kP06,0*3F
$IIHDG,302.,,,,*78
$IIHDM,302.,M*13
$IIGLL,4415.464,N,01442.269,E,055914,A,A*50
$IIZDA,055914,15,09,2012,,*5F
$IIVTG,301.,T,,M,08.6,N,15.9,K,A*2B
$IIXTE,A,A,0.84,R,N,A,*2A
$IIRMB,A,0.85,R,,,,,,,46.50,308.,,A,A*61
$IIDPT,0000.0,,*72
$IIDBT,0000.0,f,0000.0,M,,*79
$IIVLW,4592.0,N,036.47,N*41
$IIVHW,,,302.,M,08.13,N,15.05,K*15
$IIVWR,080.,R,17.6,N,09.1,M,032.6,K*7E
!AIVDM,1,1,,B,4@2A`UQujGUs=13d20IWT2700L0E,0*17
!AIVDO,1,1,,,B39cWA00Ch@lvoVE<C>vWwWUkP06,0*7D
$IIMWD,,,049.,M,17.8,N,09.2,M*06
$IIMTA,20.6,C*01
$IIMTW,21.3,C*13
$IIVWT,107.,R,17.8,N,09.2,M,033.0,K*7C
$IIHDG,303.,,,,*79
$IIHDM,303.,M*12
$IIGLL,4415.466,N,01442.263,E,055914,A,A*58
$IIZDA,055914,15,09,2012,,*5F
$IIVTG,303.,T,,M,08.3,N,15.4,K,A*21
$IIXTE,A,A,0.85,R,N,A,*2B
$IIRMB,A,0.86,R,,,,,,,46.50,308.,,A,A*62
$IIDPT,0000.0,,*72
$IIDBT,0000.0,f,0000.0,M,,*79
$IIVLW,4592.0,N,036.47,N*41
!AIVDO,1,1,,,B39cWA00D0@lvbVE<D2vow`5kP06,0*4B
$IIVHW,,,304.,M,08.11,N,15.02,K*16
$IIVWR,079.,R,18.0,N,09.3,M,033.3,K*77
$IIMWD,,,049.,M,18.1,N,09.3,M*01
$IIMTA,20.6,C*01
$IIMTW,21.3,C*13
$IIVWT,105.,R,18.1,N,09.3,M,033.5,K*7C
$IIHDG,304.,,,,*7E
$IIHDM,304.,M*15
$IIGLL,4415.469,N,01442.258,E,055916,A,A*5D
$IIZDA,055916,15,09,2012,,*5D
$IIVTG,306.,T,,M,08.1,N,15.0,K,A*22
$IIXTE,A,A,0.85,R,N,A,*2B
$IIRMB,A,0.86,R,,,,,,,46.50,308.,,A,A*62
$IIDPT,0000.0,,*72
$IIDBT,0000.0,f,0000.0,M,,*79
!AIVDO,1,1,,,B39cWA00DP@lvM6E<Dnv7w`UkP06,0*00
$IIVLW,4592.0,N,036.47,N*41
$IIVHW,,,304.,M,08.07,N,14.95,K*1E
$IIVWR,079.,R,18.3,N,09.4,M,033.9,K*79
$IIMWD,,,048.,M,18.4,N,09.5,M*03
$IIMTA,20.6,C*01
$IIMTW,21.3,C*13
$IIVWT,104.,R,18.4,N,09.5,M,034.1,K*7D
$IIHDG,303.,,,,*79
$IIHDM,303.,M*12
$IIGLL,4415.469,N,01442.258,E,055916,A,A*5D
$IIZDA,055916,15,09,2012,,*5D
$IIVTG,306.,T,,M,08.1,N,15.0,K,A*22
!AIVDO,1,1,,,B39cWA00CP@lv@6E<EVtowa5kP06,0*08
$IIXTE,A,A,0.85,R,N,A,*2B
$IIRMB,A,0.86,R,,,,,,,46.50,308.,,A,A*62
$IIDPT,0000.0,,*72
$IIDBT,0000.0,f,0000.0,M,,*79
$IIVLW,4592.0,N,036.47,N*41
$IIVHW,,,303.,M,08.06,N,14.93,K*1E
$IIVWR,079.,R,18.7,N,09.6,M,034.6,K*77
$IIMWD,,,047.,M,18.8,N,09.7,M*02
$IIMTA,20.6,C*01
$IIMTW,21.3,C*13
$IIVWT,104.,R,18.8,N,09.7,M,034.8,K*7A
$IIHDG,304.,,,,*7E
$IIHDM,304.,M*15
!AIVDM,1,1,,A,13SUtFUP4D1323hIFB15FgvR08;1,0*40
!AIVDM,1,1,,B,D@2A`UR<`O6D,0*54
!AIVDO,1,1,,,B39cWA00D@@lv2VE<FFuCwaUkP06,0*53
$IIGLL,4415.472,N,01442.253,E,055918,A,A*52
$IIZDA,055918,15,09,2012,,*53
$IIVTG,304.,T,,M,08.4,N,15.6,K,A*23
$IIXTE,A,A,0.85,R,N,A,*2B
$IIRMB,A,0.86,R,,,,,,,46.50,308.,,A,A*62
$IIDPT,0000.0,,*72
$IIDBT,0000.0,f,0000.0,M,,*79
$IIVLW,4592.0,N,036.48,N*4E
$IIVHW,,,304.,M,08.05,N,14.91,K*18
$IIVWR,078.,R,18.7,N,09.6,M,034.6,K*76
$IIMWD,,,047.,M,18.7,N,09.6,M*0C
$IIMTA,20.6,C*01
$IIMTW,21.4,C*14
!AIVDM,1,1,,B,13=?Sj002;11aeHIF0odsbJR0@;g,0*48
!AIVDO,1,1,,,B39cWA00E@@lulVE<G>uCwb5kP06,0*15
$IIVWT,103.,R,18.7,N,09.6,M,034.6,K*7D
$IIHDG,304.,,,,*7E
$IIHDM,304.,M*15
$IIGLL,4415.474,N,01442.247,E,055920,A,A*5A
$IIZDA,055920,15,09,2012,,*58
$IIVTG,304.,T,,M,08.4,N,15.6,K,A*23
$IIXTE,A,A,0.85,R,N,A,*2B
$IIRMB,A,0.86,R,,,,,,,46.50,308.,,A,A*62
$IIDPT,0000.0,,*72
$IIDBT,0000.0,f,0000.0,M,,*79
$IIVLW,4592.0,N,036.48,N*4E
$IIVHW,,,304.,M,08.06,N,14.92,K*18
$IIVWR,078.,R,18.5,N,09.5,M,034.3,K*72
!AIVDO,1,1,,,B39cWA00E@@luVVE<H2uWwbUkP06,0*58
$IIMWD,,,047.,M,18.5,N,09.5,M*0D
$IIMTA,20.6,C*01
$IIMTW,21.4,C*14
$IIVWT,103.,R,18.5,N,09.5,M,034.3,K*79
$IIHDG,303.,,,,*79
$IIHDM,303.,M*12
$IIGLL,4415.474,N,01442.247,E,055920,A,A*5A
$IIZDA,055920,15,09,2012,,*58
$IIVTG,303.,T,,M,08.9,N,16.5,K,A*29
$IIXTE,A,A,0.85,R,N,A,*2B
$IIRMB,A,0.86,R,,,,,,,46.50,308.,,A,A*62
$IIDPT,0000.0,,*72
$IIDBT,0000.0,f,0000.0,M,,*79
$IIVLW,4592.0,N,036.48,N*4E
!AIVDO,1,1,,,B39cWA00Eh@luHVE<Hrw3wc5kP06,0*29
$IIVHW,,,304.,M,08.06,N,14.93,K*19
$IIVWR,078.,R,18.6,N,09.6,M,034.4,K*75
!AIVDM,1,1,,A,4@2A``1ujGUsF14u5PI:tqW00@=M,0*2C
$IIMWD,,,046.,M,18.5,N,09.5,M*0C
!AIVDM,1,1,,A,13e1k<001i13NR2I>MitEald28=N,0*21
$IIMTA,20.6,C*01
$IIMTW,21.4,C*14
$IIVWT,103.,R,18.5,N,09.5,M,034.3,K*79
$IIHDG,305.,,,,*7F
$IIHDM,305.,M*14
$IIGLL,4415.477,N,01442.242,E,055922,A,A*5E
$IIZDA,055922,15,09,2012,,*5A
$IIVTG,303.,T,,M,08.9,N,16.5,K,A*29
$IIXTE,A,A,0.85,R,N,A,*2B
$IIRMB,A,0.86,R,,,,,,,46.50,308.,,A,A*62
!AIVDM,1,1,,A,15VB;@001=12vTPIBdcUC4:f0L0U,0*5B
!AIVDO,1,1,,,B39cWA00EP@lu:VE<IjvSwcUkP06,0*7B
$IIDPT,0000.0,,*72
$IIDBT,0000.0,f,0000.0,M,,*79
$IIVLW,4592.0,N,036.49,N*4F
$IIVHW,,,304.,M,08.09,N,14.98,K*1D
$IIVWR,077.,R,18.7,N,09.6,M,034.6,K*79
$IIMWD,,,047.,M,18.5,N,09.5,M*0D
$IIMTA,20.6,C*01
$IIMTW,21.4,C*14
$IIVWT,102.,R,18.5,N,09.5,M,034.3,K*78
$IIHDG,303.,,,,*79
$IIHDM,303.,M*12
$IIGLL,4415.477,N,01442.242,E,055922,A,A*5E
$IIZDA,055922,15,09,2012,,*5A
$IIVTG,306.,T,,M,08.7,N,16.1,K,A*26
$IIXTE,A,A,0.85,R,N,A,*2B
!AIVDO,1,1,,,B39cWA00E@@ltu6E<Jfwgwd5kP06,0*18
$IIRMB,A,0.86,R,,,,,,,46.50,308.,,A,A*62
$IIDPT,0000.0,,*72
$IIDBT,0000.0,f,0000.0,M,,*79
$IIVLW,4592.0,N,036.49,N*4F
$IIVHW,,,304.,M,08.10,N,15.00,K*15
$IIVWR,076.,R,18.6,N,09.6,M,034.4,K*7B
$IIMWD,,,045.,M,18.6,N,09.6,M*0F
$IIMTA,20.6,C*01
$IIMTW,21.4,C*14
$IIVWT,102.,R,18.4,N,09.5,M,034.1,K*7B
$IIHDG,304.,,,,*7E
$IIHDM,304.,M*15
!AIVDO,1,1,,,B39cWA00Dh@ltgVE<KW0OwdUkP06,0*7C
$IIGLL,4415.480,N,01442.236,E,055924,A,A*53
$IIZDA,055924,15,09,2012,,*5C
$IIVTG,307.,T,,M,08.5,N,15.8,K,A*2F
$IIXTE,A,A,0.85,R,N,A,*2B
$IIRMB,A,0.86,R,,,,,,,46.50,308.,,A,A*62
$IIDPT,0000.0,,*72
$IIDBT,0000.0,f,0000.0,M,,*79
$IIVLW,4592.0,N,036.49,N*4F
$IIVHW,,,306.,M,08.11,N,15.01,K*17
$IIVWR,076.,R,18.4,N,09.5,M,034.1,K*7F
$IIMWD,,,045.,M,18.4,N,09.5,M*0E
$IIMTA,20.6,C*01
$IIMTW,21.4,C*14
$IIVWT,101.,R,18.3,N,09.4,M,033.9,K*71
!AIVDO,1,1,,,B39cWA00D@@ltS6E<LNwcwe5kP06,0*14
$IIHDG,306.,,,,*7C
$IIHDM,307.,M*16
$IIGLL,4415.480,N,01442.236,E,055926,A,A*51
$IIZDA,055926,15,09,2012,,*5E
$IIVTG,307.,T,,M,08.5,N,15.8,K,A*2F
$IIXTE,A,A,0.85,R,N,A,*2B
$IIRMB,A,0.86,R,,,,,,,46.50,308.,,A,A*62
$IIDPT,0000.0,,*72
$IIDBT,0000.0,f,0000.0,M,,*79
$IIVLW,4592.0,N,036.49,N*4F
$IIVHW,,,307.,M,08.11,N,15.01,K*16
$IIVWR,077.,R,18.5,N,09.5,M,034.3,K*7D
$IIMWD,,,047.,M,18.3,N,09.4,M*0A
$IIMTA,20.6,C*01
$IIMTW,21.3,C*13
!AIVDO,1,1,,,B39cWA00D0@ltF6E<MFwsweUkP06,0*08
$IIVWT,102.,R,18.2,N,09.4,M,033.7,K*7D
$IIHDG,306.,,,,*7C
$IIHDM,306.,M*17
$IIGLL,4415.483,N,01442.231,E,055926,A,A*55
$IIZDA,055926,15,09,2012,,*5E
$IIVTG,307.,T,,M,08.3,N,15.4,K,A*25
$IIXTE,A,A,0.85,R,N,A,*2B
$IIRMB,A,0.86,R,,,,,,,46.50,308.,,A,A*62
$IIDPT,0000.0,,*72
$IIDBT,0000.0,f,0000.0,M,,*79
$IIVLW,4592.0,N,036.50,N*47
!AIVDO,1,1,,,B39cWA00E0@lt96E<N?0Cwf5kP06,0*18
$IIVHW,,,307.,M,08.10,N,15.00,K*16
$IIVWR,077.,R,18.9,N,09.7,M,035.0,K*71
$IIMWD,,,048.,M,18.6,N,09.6,M*02
$IIMTA,20.6,C*01
$IIMTW,21.3,C*13
$IIVWT,102.,R,18.6,N,09.6,M,034.4,K*7F
!AIVDM,1,1,,A,13SUtFUP4B132LhIF?m5??vp0D0<,0*61
$IIHDG,307.,,,,*7D
$IIHDM,307.,M*16
$IIGLL,4415.483,N,01442.231,E,055928,A,A*5B
$IIZDA,055928,15,09,2012,,*50
$IIVTG,307.,T,,M,08.3,N,15.4,K,A*25
$IIXTE,A,A,0.85,R,N,A,*2B
$IIRMB,A,0.86,R,,,,,,,46.50,308.,,A,A*62
!AIVDO,1,1,,,B39cWA00D0@lst6E<O2vwwfUkP06,0*4D
$IIDPT,0000.0,,*72
$IIDBT,0000.0,f,0000.0,M,,*79
$IIVLW,4592.0,N,036.50,N*47
$IIVHW,,,307.,M,08.09,N,14.99,K*1F
$IIVWR,077.,R,18.7,N,09.6,M,034.6,K*79
$IIMWD,,,049.,M,18.7,N,09.6,M*02
$IIMTA,20.6,C*01
$IIMTW,21.3,C*13
$IIVWT,102.,R,18.7,N,09.6,M,034.6,K*7C
$IIHDG,307.,,,,*7D
$IIHDM,307.,M*16
$IIGLL,4415.485,N,01442.226,E,055930,A,A*52
$IIZDA,055930,15,09,2012,,*59
!AIVDM,1,1,,B,D@2A``2<`O6D,0*01
!AIVDO,1,1,,,B39cWA00Eh@lsf6E<OvwGwg5kP06,0*12
$IIVTG,307.,T,,M,08.3,N,15.4,K,A*25
$IIXTE,A,A,0.85,R,N,A,*2B
$IIRMB,A,0.86,R,,,,,,,46.50,308.,,A,A*62
$IIDPT,0000.0,,*72
$IIDBT,0000.0,f,0000.0,M,,*79
$IIVLW,4592.0,N,036.50,N*47
$IIVHW,,,307.,M,08.10,N,15.00,K*16
$IIVWR,078.,R,18.5,N,09.5,M,034.3,K*72
$IIMWD,,,050.,M,18.5,N,09.5,M*0B
$IIMTA,20.6,C*01
$IIMTW,21.3,C*13
$IIVWT,103.,R,18.5,N,09.5,M,034.3,K*79
$IIHDG,306.,,,,*7C
$IIHDM,306.,M*17
!AIVDM,1,1,,B,13e1k<001e13NJTI>NKtAalt24cd,0*1D
!AIVDO,1,1,,,B39cWA00Eh@lsPVE<Ps0;wgUkP06,0*05
$IIGLL,4415.488,N,01442.221,E,055930,A,A*58
$IIZDA,055930,15,09,2012,,*59
$IIVTG,306.,T,,M,08.8,N,16.3,K,A*2B
$IIXTE,A,A,0.85,R,N,A,*2B
$IIRMB,A,0.86,R,,,,,,,46.50,308.,,A,A*62
$IIDPT,0000.0,,*72
$IIDBT,0000.0,f,0000.0,M,,*79
$IIVLW,4592.0,N,036.50,N*47
$IIVHW,,,305.,M,08.11,N,15.01,K*14
$IIVWR,077.,R,18.3,N,09.4,M,033.9,K*77
$IIMWD,,,048.,M,18.4,N,09.5,M*03
$IIMTA,20.6,C*01
$IIMTW,21.3,C*13
!AIVDM,1,1,,B,13=?Sj002;11aSdIF2FdsbJr0000,0*75
$IIVWT,103.,R,18.4,N,09.5,M,034.1,K*7A
$IIHDG,305.,,,,*7F
!AIVDM,1,1,,B,15VB;@001=12vc2IBd5mCD920D0U,0*4C
$IIHDM,305.,M*14
!AIVDO,1,1,,,B39cWA00E0@lsCVE<Qo1;wh5kP06,0*3D
$IIGLL,4415.488,N,01442.216,E,055932,A,A*5E
$IIZDA,055932,15,09,2012,,*5B
!AIVDM,1,1,,B,4@2A``1ujGUsP14u5PI:tqW00@CD,0*4E
$IIVTG,306.,T,,M,08.8,N,16.3,K,A*2B
$IIXTE,A,A,0.85,R,N,A,*2B
$IIRMB,A,0.86,R,,,,,,,46.50,308.,,A,A*62
$IIDPT,0000.0,,*72
$IIDBT,0000.0,f,0000.0,M,,*79
$IIVLW,4592.0,N,036.51,N*46
$IIVHW,,,306.,M,08.12,N,15.03,K*16
$IIVWR,077.,R,17.9,N,09.2,M,033.2,K*7F
!AIVDO,1,1,,A,B39cWA00E0@lsCVE<Qo1;wh5kP06,0*7C
!AIVDM,1,1,,A,D@2A`UQ6DO6D,0*7A
!AIVDO,1,1,,,B39cWA00D0@ls76E<Rg0WwhUkP06,0*2E
$IIMWD,,,049.,M,18.1,N,09.3,M*01
$IIMTA,20.6,C*01
$IIMTW,21.3,C*13
$IIVWT,103.,R,18.1,N,09.3,M,033.5,K*7A
$IIHDG,306.,,,,*7C
$IIHDM,306.,M*17
$IIGLL,4415.491,N,01442.216,E,055932,A,A*56
$IIZDA,055932,15,09,2012,,*5B
$IIVTG,309.,T,,M,08.5,N,15.8,K,A*21
$IIXTE,A,A,0.85,R,N,A,*2B
$IIRMB,A,0.86,R,,,,,,,46.50,308.,,A,A*62
$IIDPT,0000.0,,*72
$IIDBT,0000.0,f,0000.0,M,,*79
$IIVLW,4592.0,N,036.51,N*46
!AIVDO,1,1,,,B39cWA00DP@lrr6E<SW03wi5kP06,0*3E
$IIVHW,,,307.,M,08.12,N,15.03,K*17
$IIVWR,077.,R,17.7,N,09.1,M,032.8,K*79
$IIMWD,,,049.,M,17.8,N,09.2,M*06
$IIMTA,20.6,C*01
$IIMTW,21.3,C*13
$IIVWT,103.,R,17.8,N,09.2,M,033.0,K*78
$IIHDG,307.,,,,*7D
$IIHDM,307.,M*16
$IIGLL,4415.494,N,01442.210,E,055934,A,A*53
!AIVDM,1,1,,B,4@2A`UQujGUsQ13d20IWT2700L0E,0*7B
$IIZDA,055934,15,09,2012,,*5D
$IIVTG,307.,T,,M,08.2,N,15.2,K,A*22
$IIXTE,A,A,0.85,R,N,A,*2B
$IIRMB,A,0.86,R,,,,,,,46.50,308.,,A,A*62
$IIDPT,0000.0,,*72
!AIVDO,1,1,,,B39cWA00DP@lrdVE<TNvgwiUkP06,0*24
$IIDBT,0000.0,f,0000.0,M,,*79
$IIVLW,4592.0,N,036.51,N*46
$IIVHW,,,306.,M,08.11,N,15.02,K*14
$IIVWR,077.,R,17.4,N,09.0,M,032.2,K*71
$IIMWD,,,050.,M,17.7,N,09.1,M*02
$IIMTA,20.6,C*01
$IIMTW,21.3,C*13
$IIVWT,103.,R,17.7,N,09.1,M,032.8,K*7D
$IIHDG,306.,,,,*7C
$IIHDM,306.,M*17
$IIGLL,4415.494,N,01442.210,E,055934,A,A*53
$IIZDA,055934,15,09,2012,,*5D
!AIVDO,1,1,,,B39cWA00Dh@lrOVE<UFwswj5kP06,0*48
$IIVTG,307.,T,,M,08.2,N,15.2,K,A*22
$IIXTE,A,A,0.85,R,N,A,*2B
$IIRMB,A,0.86,R,,,,,,,46.50,308.,,A,A*62
$IIDPT,0000.0,,*72
$IIDBT,0000.0,f,0000.0,M,,*79
$IIVLW,4592.0,N,036.51,N*46
$IIVHW,,,306.,M,08.10,N,15.00,K*17
$IIVWR,075.,R,17.3,N,08.9,M,032.0,K*7E
$IIMWD,,,050.,M,17.0,N,08.7,M*02
$IIMTA,20.6,C*01
$IIMTW,21.3,C*13
$IIVWT,102.,R,17.0,N,08.7,M,031.5,K*72
$IIHDG,307.,,,,*7D
$IIHDM,307.,M*16
$IIGLL,4415.497,N,01442.205,E,055936,A,A*56
$IIZDA,055936,15,09,2012,,*5F
!AIVDO,1,1,,,B39cWA00E@@lrB6E<VC07wjUkP06,0*69
$IIVTG,307.,T,,M,08.4,N,15.6,K,A*20
$IIXTE,A,A,0.85,R,N,A,*2B
$IIRMB,A,0.86,R,,,,,,,46.50,308.,,A,A*62
$IIDPT,0000.0,,*72
$IIDBT,0000.0,f,0000.0,M,,*79
$IIVLW,4592.0,N,036.52,N*45
$IIVHW,,,306.,M,08.09,N,14.99,K*1E
$IIVWR,075.,R,16.9,N,08.7,M,031.3,K*7B
$IIMWD,,,049.,M,16.7,N,08.6,M*0D
$IIMTA,20.6,C*01
$IIMTW,21.3,C*13
!AIVDO,1,1,,,B39cWA00E0@lr4VE<W:vowk5kP06,0*08
$IIVWT,103.,R,16.7,N,08.6,M,030.9,K*79
$IIHDG,306.,,,,*7C
$IIHDM,306.,M*17
$IIGLL,4415.500,N,01442.200,E,055938,A,A*52
$IIZDA,055938,15,09,2012,,*51
$IIVTG,307.,T,,M,08.4,N,15.6,K,A*20
$IIXTE,A,A,0.85,R,N,A,*2B
$IIRMB,A,0.86,R,,,,,,,46.50,308.,,A,A*62
$IIDPT,0000.0,,*72
!AIVDM,1,1,,A,13SUtFUP4B132nHIF=VU??w<08Fw,0*36
!AIVDO,1,1,,,B39cWA00E@@lqoVE<`70KwkUkP06,0*18
$IIDBT,0000.0,f,0000.0,M,,*79
$IIVLW,4592.0,N,036.52,N*45
$IIVHW,,,306.,M,08.10,N,15.00,K*17
$IIVWR,074.,R,17.2,N,08.8,M,031.9,K*75
$IIMWD,,,047.,M,16.8,N,08.6,M*0C
$IIMTA,20.6,C*01
$IIMTW,21.3,C*13
$IIVWT,101.,R,16.8,N,08.6,M,031.1,K*7D
$IIHDG,307.,,,,*7D
$IIHDM,307.,M*16
$IIGLL,4415.500,N,01442.200,E,055938,A,A*52
$IIZDA,055938,15,09,2012,,*51
$IIVTG,305.,T,,M,08.5,N,15.8,K,A*2D
$IIXTE,A,A,0.85,R,N,A,*2B
$IIRMB,A,0.86,R,,,,,,,46.50,308.,,A,A*62
$IIDPT,0000.0,,*72
$IIDBT,0000.0,f,0000.0,M,,*79
$IIVLW,4592.0,N,036.52,N*45
!AIVDO,1,1,,,B39cWA00EP@lqaVE<`vwgwl5kP06,0*4B
$IIVHW,,,308.,M,08.10,N,15.00,K*19
$IIVWR,074.,R,17.7,N,09.1,M,032.8,K*7A
$IIMWD,,,048.,M,17.1,N,08.8,M*05
$IIMTA,20.6,C*01
$IIMTW,21.3,C*13
$IIVWT,101.,R,17.1,N,08.8,M,031.7,K*7D
$IIHDG,307.,,,,*7D
$IIHDM,307.,M*16
!AIVDO,1,1,,,B39cWA00E@@lqL6E<anv7wlUkP06,0*3E
$IIGLL,4415.502,N,01442.195,E,055940,A,A*50
$IIZDA,055940,15,09,2012,,*5E
$IIVTG,305.,T,,M,08.5,N,15.8,K,A*2D
$IIXTE,A,A,0.85,R,N,A,*2B
$IIRMB,A,0.86,R,,,,,,,46.50,308.,,A,A*62
$IIDPT,0000.0,,*72
$IIDBT,0000.0,f,0000.0,M,,*79
$IIVLW,4592.0,N,036.53,N*44
$IIVHW,,,306.,M,08.11,N,15.01,K*17
$IIVWR,075.,R,18.0,N,09.3,M,033.3,K*7B
$IIMWD,,,048.,M,17.5,N,09.0,M*08
$IIMTA,20.6,C*01
$IIMTW,21.3,C*13
$IIVWT,101.,R,17.5,N,09.0,M,032.4,K*70
$IIHDG,305.,,,,*7F
$IIHDM,305.,M*14
$IIGLL,4415.502,N,01442.195,E,055942,A,A*52
$IIZDA,055942,15,09,2012,,*5C
$IIVTG,307.,T,,M,08.5,N,15.8,K,A*2F
$IIXTE,A,A,0.85,R,N,A,*2B
!AIVDO,1,1,,,B39cWA00E0@lq>VE<bfwOwm5kP06,0*4F
$IIRMB,A,0.86,R,,,,,,,46.50,308.,,A,A*62
$IIDPT,0000.0,,*72
$IIDBT,0000.0,f,0000.0,M,,*79
$IIVLW,4592.0,N,036.53,N*44
$IIVHW,,,306.,M,08.12,N,15.03,K*16
$IIVWR,075.,R,18.5,N,09.5,M,034.3,K*7F
$IIMWD,,,046.,M,17.7,N,09.1,M*05
$IIMTA,20.6,C*01
$IIMTW,21.3,C*13
$IIVWT,101.,R,18.1,N,09.3,M,033.5,K*78
$IIHDG,306.,,,,*7C
$IIHDM,306.,M*17
!AIVDM,1,1,,A,15VB;@001=12viVIBcPmAT9F0@ID,0*49
!AIVDM,1,1,,B,13=?Sj002;11aIHIF44dsbKD0000,0*00
!AIVDO,1,1,,,B39cWA00E0@lq16E<cbvwwmUkP06,0*7C
$IIGLL,4415.505,N,01442.189,E,055942,A,A*58
$IIZDA,055942,15,09,2012,,*5C
$IIVTG,307.,T,,M,08.5,N,15.8,K,A*2F
$IIXTE,A,A,0.85,R,N,A,*2B
$IIRMB,A,0.86,R,,,,,,,46.50,308.,,A,A*62
$IIDPT,0000.0,,*72
$IIDBT,0000.0,f,0000.0,M,,*79
!AIVDM,1,1,,A,D@2A``0c`Nfp,0*3A
!AIVDO,1,1,,,B39cWA00FP@lpjVE<dRw3wn5kP06,0*34
$IIVLW,4592.0,N,036.53,N*44
$IIVHW,,,307.,M,08.12,N,15.04,K*10
$IIVWR,077.,R,18.7,N,09.6,M,034.6,K*79
$IIMWD,,,047.,M,18.1,N,09.3,M*0F
$IIMTA,20.6,C*01
$IIMTW,21.3,C*13
$IIVWT,101.,R,18.4,N,09.5,M,034.1,K*78
$IIHDG,307.,,,,*7D
$IIHDM,307.,M*16
$IIGLL,4415.505,N,01442.189,E,055944,A,A*5E
$IIZDA,055944,15,09,2012,,*5A
$IIVTG,307.,T,,M,08.5,N,15.8,K,A*2F
$IIXTE,A,A,0.85,R,N,A,*2B
$IIRMB,A,0.86,R,,,,,,,46.50,308.,,A,A*62
$IIDPT,0000.0,,*72
$IIDBT,0000.0,f,0000.0,M,,*79
$IIVLW,4592.0,N,036.53,N*44
$IIVHW,,,306.,M,08.13,N,15.06,K*12
$IIVWR,078.,R,18.9,N,09.7,M,035.0,K*7E
!AIVDM,1,1,,A,4@2A`UQujGUsc13d20IWT27000S:,0*2A
!AIVDO,1,1,,,B39cWA00FP@lpT6E<eNukwnUkP06,0*4D
$IIMWD,,,049.,M,18.4,N,09.5,M*02
$IIMTA,20.6,C*01
$IIMTW,21.3,C*13
$IIVWT,102.,R,18.7,N,09.6,M,034.6,K*7C
$IIHDG,306.,,,,*7C
$IIHDM,306.,M*17
$IIGLL,4415.508,N,01442.184,E,055944,A,A*5E
$IIZDA,055944,15,09,2012,,*5A
!AIVDO,1,1,,,B39cWA00FP@lpEVE<fFvKwo5kP06,0*75
$IIVTG,305.,T,,M,08.9,N,16.5,K,A*2F
$IIXTE,A,A,0.85,R,N,A,*2B
$IIRMB,A,0.86,R,,,,,,,46.50,308.,,A,A*62
$IIDPT,0000.0,,*72
$IIDBT,0000.0,f,0000.0,M,,*79
$IIVLW,4592.0,N,036.53,N*44
$IIVHW,,,304.,M,08.18,N,15.15,K*19
$IIVWR,079.,R,19.0,N,09.8,M,035.2,K*7A
$IIMWD,,,050.,M,19.1,N,09.8,M*03
$IIMTA,20.6,C*01
$IIMTW,21.3,C*13
$IIVWT,104.,R,19.1,N,09.8,M,035.4,K*70
$IIHDG,304.,,,,*7E
$IIHDM,304.,M*15
$IIGLL,4415.508,N,01442.184,E,055946,A,A*5C
$IIZDA,055946,15,09,2012,,*58
$IIVTG,305.,T,,M,08.9,N,16.5,K,A*2F
$IIXTE,A,A,0.85,R,N,A,*2B
$IIRMB,A,0.86,R,,,,,,,46.50,308.,,A,A*62
!AIVDM,1,1,,A,13SUtFUP4B13360IF<FU<gwL0@Kn,0*41
$IIDPT,0000.0,,*72
$IIDBT,0000.0,f,0000.0,M,,*79
!AIVDO,1,1,,,B39cWA00FP@lp76E<gBv?woUkP06,0*76
$IIVLW,4592.0,N,036.54,N*43
$IIVHW,,,303.,M,08.21,N,15.20,K*12
$IIVWR,080.,R,19.4,N,10.0,M,035.9,K*73
$IIMWD,,,047.,M,19.3,N,09.9,M*06
$IIMTA,20.6,C*01
$IIMTW,21.4,C*14
$IIVWT,103.,R,19.3,N,09.9,M,035.7,K*77
$IIHDG,302.,,,,*78
!AIVDO,1,1,,,B39cWA00Eh@loq6E<h:w3wp5kP06,0*11
$IIHDM,302.,M*13
$IIGLL,4415.511,N,01442.178,E,055946,A,A*57
$IIZDA,055946,15,09,2012,,*58
$IIVTG,304.,T,,M,09.3,N,17.2,K,A*23
$IIXTE,A,A,0.85,R,N,A,*2B
$IIRMB,A,0.86,R,,,,,,,46.50,308.,,A,A*62
$IIDPT,0000.0,,*72
$IIDBT,0000.0,f,0000.0,M,,*79
$IIVLW,4592.0,N,036.54,N*43
$IIVHW,,,303.,M,08.24,N,15.25,K*12
$IIVWR,080.,R,19.9,N,10.2,M,036.9,K*7F
$IIMWD,,,046.,M,19.9,N,10.2,M*0E
$IIMTA,20.6,C*01
$IIMTW,21.3,C*13
$IIVWT,104.,R,19.9,N,10.2,M,036.9,K*74
$IIHDG,303.,,,,*79
!AIVDM,1,1,,B,D@2A`UPsDNfp,0*58
!AIVDO,1,1,,,B39cWA00E@@loc6E<i2v?wpUkP06,0*4F
$IIHDM,303.,M*12
$IIGLL,4415.514,N,01442.172,E,055948,A,A*56
$IIZDA,055948,15,09,2012,,*56
$IIVTG,306.,T,,M,08.8,N,16.3,K,A*2B
$IIXTE,A,A,0.85,R,N,A,*2B
$IIRMB,A,0.86,R,,,,,,,46.50,308.,,A,A*62
$IIDPT,0000.0,,*72
$IIDBT,0000.0,f,0000.0,M,,*79
$IIVLW,4592.0,N,036.54,N*43
$IIVHW,,,304.,M,08.26,N,15.29,K*1B
$IIVWR,079.,R,20.1,N,10.3,M,037.2,K*70
$IIMWD,,,047.,M,20.2,N,10.4,M*08
$IIMTA,20.6,C*01
$IIMTW,21.4,C*14
!AIVDO,1,1,,,B39cWA00E@@loM6E<iruwwq5kP06,0*0B
$IIVWT,103.,R,20.2,N,10.4,M,037.4,K*78
$IIHDG,305.,,,,*7F
$IIHDM,305.,M*14
$IIGLL,4415.517,N,01442.167,E,055950,A,A*58
$IIZDA,055950,15,09,2012,,*5F
$IIVTG,306.,T,,M,08.8,N,16.3,K,A*2B
$IIXTE,A,A,0.85,R,N,A,*2B
$IIRMB,A,0.86,R,,,,,,,46.50,308.,,A,A*62
$IIDPT,0000.0,,*72
$IIDBT,0000.0,f,0000.0,M,,*79
$IIVLW,4592.0,N,036.55,N*42
$IIVHW,,,305.,M,08.28,N,15.34,K*18
!AIVDO,1,1,,,B39cWA00G0@lo>6E<jnvSwqUkP06,0*52
$IIVWR,080.,R,20.9,N,10.8,M,038.7,K*7F
$IIMWD,,,048.,M,20.8,N,10.7,M*0E
$IIMTA,20.6,C*01
$IIMTW,21.4,C*14
$IIVWT,103.,R,20.8,N,10.7,M,038.5,K*7F
$IIHDG,305.,,,,*7F
$IIHDM,305.,M*14
$IIGLL,4415.517,N,01442.167,E,055950,A,A*58
$IIZDA,055950,15,09,2012,,*5F
$IIVTG,305.,T,,M,08.9,N,16.5,K,A*2F
$IIXTE,A,A,0.85,R,N,A,*2B
$IIRMB,A,0.86,R,,,,,,,46.50,308.,,A,A*62
$IIDPT,0000.0,,*72
$IIDBT,0000.0,f,0000.0,M,,*79
$IIVLW,4592.0,N,036.55,N*42
!AIVDO,1,1,,,B39cWA00Fh@lnw6E<kjuKwr5kP06,0*3E
$IIVHW,,,305.,M,08.34,N,15.45,K*13
$IIVWR,080.,R,20.8,N,10.7,M,038.5,K*73
$IIMWD,,,048.,M,21.0,N,10.8,M*08
$IIMTA,20.6,C*01
!AIVDM,1,1,,B,4@2A``1ujGUsl14u5PI:tqW00@O2,0*08
$IIMTW,21.4,C*14
$IIVWT,103.,R,21.0,N,10.8,M,038.9,K*75
$IIHDG,305.,,,,*7F
$IIHDM,305.,M*14
!AIVDM,1,1,,B,13e1k<001i13N5VI>PHtDqm`2D0N,0*78
!AIVDO,1,1,,,B39cWA00G@@lnhVE<ljwwwrUkP06,0*31
$IIGLL,4415.519,N,01442.161,E,055952,A,A*52
$IIZDA,055952,15,09,2012,,*5D
$IIVTG,304.,T,,M,09.5,N,17.6,K,A*21
$IIXTE,A,A,0.85,R,N,A,*2B
$IIRMB,A,0.86,R,,,,,,,46.50,308.,,A,A*62
$IIDPT,0000.0,,*72
$IIDBT,0000.0,f,0000.0,M,,*79
$IIVLW,4592.0,N,036.55,N*42
$IIVHW,,,306.,M,08.38,N,15.52,K*1A
$IIVWR,079.,R,21.1,N,10.9,M,039.1,K*76
$IIMWD,,,048.,M,21.0,N,10.8,M*08
$IIMTA,20.6,C*01
$IIMTW,21.3,C*13
$IIVWT,103.,R,21.0,N,10.8,M,038.9,K*75
$IIHDG,307.,,,,*7D
$IIHDM,307.,M*16
$IIGLL,4415.519,N,01442.161,E,055954,A,A*54
$IIZDA,055954,15,09,2012,,*5B
$IIVTG,304.,T,,M,09.5,N,17.6,K,A*21
!AIVDM,1,1,,B,15VB;@001=12vq4IBbpE@D9d08Ob,0*52
!AIVDO,1,1,,,B39cWA00G@@lnRVE<mo1Ows5kP06,0*10
$IIXTE,A,A,0.85,R,N,A,*2B
$IIRMB,A,0.86,R,,,,,,,46.50,308.,,A,A*62
$IIDPT,0000.0,,*72
$IIDBT,0000.0,f,0000.0,M,,*79
$IIVLW,4592.0,N,036.55,N*42
$IIVHW,,,306.,M,08.43,N,15.61,K*16
!AIVDM,1,1,,B,4@2A`UQujGUsm13d20IWT27000S:,0*27
!AIVDO,1,1,,,B39cWA00GP@lnDVE<nw3?wsUkP06,0*1F
$IIVWR,077.,R,20.9,N,10.8,M,038.7,K*77
$IIMWD,,,048.,M,21.1,N,10.9,M*08
$IIMTA,20.6,C*01
$IIMTW,21.3,C*13
$IIVWT,100.,R,20.7,N,10.6,M,038.3,K*74
$IIHDG,308.,,,,*72
$IIHDM,308.,M*19
$IIGLL,4415.523,N,01442.155,E,055954,A,A*5A
$IIZDA,055954,15,09,2012,,*5B
$IIVTG,311.,T,,M,09.6,N,17.8,K,A*28
$IIXTE,A,A,0.85,R,N,A,*2B
$IIRMB,A,0.86,R,,,,,,,46.50,308.,,A,A*62
$IIDPT,0000.0,,*72
$IIDBT,0000.0,f,0000.0,M,,*79
$IIVLW,4592.0,N,036.56,N*41
$IIVHW,,,308.,M,08.51,N,15.76,K*1D
$IIVWR,078.,R,21.0,N,10.8,M,038.9,K*7E
$IIMWD,,,049.,M,20.9,N,10.8,M*01
$IIMTA,20.6,C*01
$IIMTW,21.3,C*13
!AIVDO,1,1,,,B39cWA00Fh@ln7VE<p73swt5kP06,0*20
$IIVWT,101.,R,20.9,N,10.8,M,038.7,K*71
$IIHDG,308.,,,,*72
$IIHDM,308.,M*19
$IIGLL,4415.523,N,01442.155,E,055956,A,A*58
$IIZDA,055956,15,09,2012,,*59
$IIVTG,311.,T,,M,09.6,N,17.8,K,A*28
$IIXTE,A,A,0.85,R,N,A,*2B
$IIRMB,A,0.86,R,,,,,,,46.40,308.,,A,A*63
$IIDPT,0000.0,,*72
$IIDBT,0000.0,f,0000.0,M,,*79
$IIVLW,4592.0,N,036.56,N*41
$IIVHW,,,308.,M,08.53,N,15.79,K*10
$IIVWR,079.,R,21.1,N,10.9,M,039.1,K*76
$IIMWD,,,049.,M,21.1,N,10.9,M*09
$IIMTA,20.6,C*01
!AIVDO,1,1,,,B39cWA00EP@lms6E<q72OwtUkP06,0*60
$IIMTW,21.3,C*13
$IIVWT,101.,R,21.1,N,10.9,M,039.1,K*7E
$IIHDG,308.,,,,*72
$IIHDM,308.,M*19
$IIGLL,4415.526,N,01442.150,E,055956,A,A*58
$IIZDA,055956,15,09,2012,,*59
$IIVTG,314.,T,,M,09.1,N,16.9,K,A*2A
$IIXTE,A,A,0.85,R,N,A,*2B
$IIRMB,A,0.86,R,,,,,,,46.40,308.,,A,A*63
$IIDPT,0000.0,,*72
$IIDBT,0000.0,f,0000.0,M,,*79
!AIVDM,1,1,,A,13SUtFUP4@133SdIF:355?wh0@R3,0*50
!AIVDO,1,1,,,B39cWA00Dh@lmf6E<qrvkwu5kP06,0*08
$IIVLW,4592.0,N,036.56,N*41
$IIVHW,,,307.,M,08.53,N,15.80,K*19
$IIVWR,081.,R,20.7,N,10.6,M,038.3,K*7A
$IIMWD,,,050.,M,21.1,N,10.9,M*01
$IIMTA,20.6,C*01
$IIMTW,21.3,C*13
$IIVWT,102.,R,21.1,N,10.9,M,039.1,K*7D
$IIHDG,305.,,,,*7F
$IIHDM,305.,M*14
$IIGLL,4415.529,N,01442.145,E,055958,A,A*5D
$IIZDA,055958,15,09,2012,,*57
$IIVTG,314.,T,,M,09.1,N,16.9,K,A*2A
$IIXTE,A,A,0.85,R,N,A,*2B
!AIVDO,1,1,,,B39cWA00EP@lmP6E<rnvGwuUkP06,0*54
$IIRMB,A,0.86,R,,,,,,,46.40,308.,,A,A*63
$IIDPT,0000.0,,*72
$IIDBT,0000.0,f,0000.0,M,,*79
$IIVLW,4592.0,N,036.57,N*40
$IIVHW,,,305.,M,08.53,N,15.79,K*1D
$IIVWR,082.,R,19.6,N,10.1,M,036.3,K*7B
$IIMWD,,,051.,M,21.0,N,10.8,M*00
$IIMTA,20.6,C*01
$IIMTW,21.3,C*13
$IIVWT,106.,R,21.0,N,10.8,M,038.9,K*70
$IIHDG,305.,,,,*7F
!AIVDM,1,1,,B,D@2A``0O4Nfp,0*41
$IIHDM,305.,M*14
$IIGLL,4415.529,N,01442.145,E,060000,A,A*5F
$IIZDA,060000,15,09,2012,,*55
$IIVTG,305.,T,,M,08.6,N,15.9,K,A*2F
!AIVDO,1,1,,,B39cWA00E0@lmB6E<sVtGwP5kP06,0*58
!AIVDM,1,1,,B,13=?Sj002;11a>8IF5tdsbKh0H0E,0*67
$IIXTE,A,A,0.85,R,N,A,*2B
$IIRMB,A,0.86,R,,,,,,,46.40,308.,,A,A*63
$IIDPT,0000.0,,*72
$IIDBT,0000.0,f,0000.0,M,,*79
$IIVLW,4592.0,N,036.57,N*40
$IIVHW,,,305.,M,08.52,N,15.77,K*12
$IIVWR,083.,R,19.5,N,10.0,M,036.1,K*7A
$IIMWD,,,052.,M,20.2,N,10.4,M*0C
$IIMTA,20.6,C*01
$IIMTW,21.3,C*13
$IIVWT,107.,R,20.2,N,10.4,M,037.4,K*7C
$IIHDG,305.,,,,*7F
!AIVDO,1,1,,,B39cWA00FP@lm3VE<tRvKwPUkP06,0*47
$IIHDM,305.,M*14
$IIGLL,4415.532,N,01442.139,E,060000,A,A*5E
$IIZDA,060000,15,09,2012,,*55
$IIVTG,302.,T,,M,08.9,N,16.5,K,A*28
$IIXTE,A,A,0.85,R,N,A,*2B
$IIRMB,A,0.86,R,,,,,,,46.40,308.,,A,A*63
$IIDPT,0000.0,,*72
$IIDBT,0000.0,f,0000.0,M,,*79
$IIVLW,4592.0,N,036.57,N*40
$IIVHW,,,304.,M,08.52,N,15.77,K*13
$IIVWR,082.,R,19.6,N,10.1,M,036.3,K*7B
$IIMWD,,,053.,M,20.3,N,10.4,M*0C
$IIMTA,20.5,C*02
$IIMTW,21.3,C*13
$IIVWT,107.,R,20.1,N,10.3,M,037.2,K*7E
$IIHDG,304.,,,,*7E
!AIVDO,1,1,,,B39cWA00FP@llm6E<uJvSwQ5kP06,0*18
$IIHDM,304.,M*15
$IIGLL,4415.532,N,01442.139,E,060002,A,A*5C
$IIZDA,060002,15,09,2012,,*57
$IIVTG,302.,T,,M,08.9,N,16.5,K,A*28
$IIXTE,A,A,0.85,R,N,A,*2B
$IIRMB,A,0.86,R,,,,,,,46.40,308.,,A,A*63
$IIDPT,0000.0,,*72
$IIDBT,0000.0,f,0000.0,M,,*79
$IIVLW,4592.0,N,036.58,N*4F
$IIVHW,,,305.,M,08.51,N,15.76,K*10
!AIVDM,1,1,,A,15VB;@001=12vw8IBbGU?T880@20,0*19
!AIVDO,1,1,,,B39cWA00F0@llWVE<vFwcwQUkP06,0*7C
$IIVWR,082.,R,19.4,N,10.0,M,035.9,K*71
$IIMWD,,,052.,M,20.3,N,10.4,M*0D
$IIMTA,20.5,C*02
$IIMTW,21.3,C*13
$IIVWT,108.,R,20.3,N,10.4,M,037.6,K*70
$IIHDG,305.,,,,*7F
$IIHDM,305.,M*14
$IIGLL,4415.535,N,01442.133,E,060002,A,A*51
$IIZDA,060002,15,09,2012,,*57
$IIVTG,305.,T,,M,09.1,N,16.9,K,A*2A
$IIXTE,A,A,0.85,R,N,A,*2B
$IIRMB,A,0.86,R,,,,,,,46.40,308.,,A,A*63
$IIDPT,0000.0,,*72
!AIVDO,1,1,,B,B39cWA00F0@llWVE<vFwcwQUkP06,0*3E
$IIDBT,0000.0,f,0000.0,M,,*79
!AIVDO,1,1,,,B39cWA00EP@llJ6E<wBwWwR5kP06,0*30
$IIVLW,4592.0,N,036.58,N*4F
$IIVHW,,,305.,M,08.51,N,15.75,K*13
$IIVWR,082.,R,19.3,N,09.9,M,035.7,K*79
$IIMWD,,,052.,M,19.9,N,10.2,M*0B
$IIMTA,20.5,C*02
$IIMTW,21.3,C*13
$IIVWT,107.,R,19.9,N,10.2,M,036.9,K*77
$IIHDG,305.,,,,*7F
$IIHDM,305.,M*14
$IIGLL,4415.535,N,01442.133,E,060004,A,A*57
!AIVDO,1,1,,,B39cWA00E@@ll=6E=0?0OwRUkP06,0*53
$IIZDA,060004,15,09,2012,,*51
$IIVTG,307.,T,,M,08.8,N,16.3,K,A*2A
$IIXTE,A,A,0.85,R,N,A,*2B
$IIRMB,A,0.86,R,,,,,,,46.40,308.,,A,A*63
$IIDPT,0000.0,,*72
$IIDBT,0000.0,f,0000.0,M,,*79
$IIVLW,4592.0,N,036.58,N*4F
$IIVHW,,,306.,M,08.48,N,15.71,K*1C
$IIVWR,081.,R,19.6,N,10.1,M,036.3,K*78
$IIMWD,,,051.,M,19.9,N,10.2,M*08
$IIMTA,20.5,C*02
$IIMTW,21.4,C*14
$IIVWT,106.,R,19.9,N,10.2,M,036.9,K*76
$IIHDG,307.,,,,*7D
$IIHDM,307.,M*16
$IIGLL,4415.538,N,01442.128,E,060006,A,A*52
$IIZDA,060006,15,09,2012,,*53
!AIVDO,1,1,,,B39cWA00FP@lkw6E=1?13wS5kP06,0*10
$IIVTG,307.,T,,M,08.8,N,16.3,K,A*2A
$IIXTE,A,A,0.85,R,N,A,*2B
$IIRMB,A,0.86,R,,,,,,,46.40,308.,,A,A*63
$IIDPT,0000.0,,*72
$IIDBT,0000.0,f,0000.0,M,,*79
$IIVLW,4592.0,N,036.58,N*4F
$IIVHW,,,308.,M,08.47,N,15.68,K*15
$IIVWR,081.,R,19.9,N,10.2,M,036.9,K*7E
$IIMWD,,,052.,M,20.1,N,10.3,M*08
$IIMTA,20.5,C*02
$IIMTW,21.3,C*13
$IIVWT,106.,R,20.1,N,10.3,M,037.2,K*7F
$IIHDG,307.,,,,*7D
$IIHDM,307.,M*16
$IIGLL,4415.541,N,01442.122,E,060006,A,A*56
!AIVDO,1,1,,,B39cWA00F0@lki6E=26uCwSUkP06,0*30
$IIZDA,060006,15,09,2012,,*53
$IIVTG,308.,T,,M,08.8,N,16.3,K,A*25
$IIXTE,A,A,0.85,R,N,A,*2B
$IIRMB,A,0.86,R,,,,,,,46.40,308.,,A,A*63
$IIDPT,0000.0,,*72
$IIDBT,0000.0,f,0000.0,M,,*79
$IIVLW,4592.0,N,036.59,N*4E
$IIVHW,,,305.,M,08.46,N,15.66,K*17
$IIVWR,081.,R,19.7,N,10.1,M,036.5,K*7F
$IIMWD,,,050.,M,20.1,N,10.3,M*0A
$IIMTA,20.5,C*02
$IIMTW,21.4,C*14
!AIVDO,1,1,,,B39cWA00GP@lkR6E=32wgwT5kP06,0*2E
$IIVWT,105.,R,20.1,N,10.3,M,037.2,K*7C
$IIHDG,305.,,,,*7F
$IIHDM,305.,M*14
$IIGLL,4415.544,N,01442.117,E,060008,A,A*5B
$IIZDA,060008,15,09,2012,,*5D
$IIVTG,308.,T,,M,08.8,N,16.3,K,A*25
$IIXTE,A,A,0.85,R,N,A,*2B
$IIRMB,A,0.86,R,,,,,,,46.40,308.,,A,A*63
$IIDPT,0000.0,,*72
$IIDBT,0000.0,f,0000.0,M,,*79
$IIVLW,4592.0,N,036.59,N*4E
$IIVHW,,,305.,M,08.45,N,15.64,K*16
!AIVDM,1,1,,A,13SUtFUP4?1341HIF7t52gv>0<0<,0*35
!AIVDO,1,1,,,B39cWA00DP@lkE6E=3ruwwTUkP06,0*08
$IIVWR,080.,R,19.5,N,10.0,M,036.1,K*79
$IIMWD,,,050.,M,20.0,N,10.3,M*0B
$IIMTA,20.5,C*02
$IIMTW,21.4,C*14
$IIVWT,105.,R,20.0,N,10.3,M,037.0,K*7F
$IIHDG,304.,,,,*7E
$IIHDM,304.,M*15
$IIGLL,4415.544,N,01442.117,E,060008,A,A*5B
$IIZDA,060008,15,09,2012,,*5D
$IIVTG,306.,T,,M,09.1,N,16.9,K,A*29
$IIXTE,A,A,0.85,R,N,A,*2B
$IIRMB,A,0.86,R,,,,,,,46.40,308.,,A,A*63
$IIDPT,0000.0,,*72
$IIDBT,0000.0,f,0000.0,M,,*79
!AIVDO,1,1,,,B39cWA00Fh@lk76E=4o0OwU5kP06,0*46
$IIVLW,4592.0,N,036.59,N*4E
$IIVHW,,,305.,M,08.44,N,15.63,K*10
$IIVWR,080.,R,19.3,N,09.9,M,035.7,K*7B
$IIMWD,,,049.,M,19.8,N,10.2,M*00
$IIMTA,20.5,C*02
$IIMTW,21.5,C*15
$IIVWT,105.,R,19.8,N,10.2,M,036.7,K*7A
$IIHDG,305.,,,,*7F
$IIHDM,305.,M*14
$IIGLL,4415.547,N,01442.111,E,060010,A,A*57
$IIZDA,060010,15,09,2012,,*54
$IIVTG,307.,T,,M,08.8,N,16.3,K,A*2A
$IIXTE,A,A,0.85,R,N,A,*2B
!AIVDO,1,1,,,B39cWA00EP@ljq6E=5fvCwUUkP06,0*18
$IIRMB,A,0.86,R,,,,,,,46.40,308.,,A,A*63
$IIDPT,0000.0,,*72
$IIDBT,0000.0,f,0000.0,M,,*79
$IIVLW,4592.0,N,036.60,N*44
$IIVHW,,,304.,M,08.43,N,15.61,K*14
$IIVWR,082.,R,19.2,N,09.9,M,035.6,K*79
$IIMWD,,,050.,M,19.6,N,10.1,M*05
$IIMTA,20.5,C*02
$IIMTW,21.5,C*15
$IIVWT,107.,R,19.8,N,10.2,M,036.7,K*78
$IIHDG,304.,,,,*7E
$IIHDM,304.,M*15
$IIGLL,4415.547,N,01442.111,E,060010,A,A*57
$IIZDA,060010,15,09,2012,,*54
!AIVDM,1,1,,B,13e1k<001j13Ml8I>R0LFIlD2H77,0*60
$IIVTG,307.,T,,M,08.8,N,16.3,K,A*2A
$IIXTE,A,A,0.85,R,N,A,*2B
!AIVDO,1,1,,,B39cWA00E0@ljc6E=6VvKwV5kP06,0*32
$IIRMB,A,0.86,R,,,,,,,46.40,308.,,A,A*63
$IIDPT,0000.0,,*72
!AIVDM,1,1,,B,4@2A``1ujGV0<14u5PI:tqW00<0w,0*5E
$IIDBT,0000.0,f,0000.0,M,,*79
$IIVLW,4592.0,N,036.60,N*44
$IIVHW,,,304.,M,08.42,N,15.60,K*14
$IIVWR,082.,R,19.2,N,09.9,M,035.6,K*79
$IIMWD,,,051.,M,19.8,N,10.2,M*09
$IIMTA,20.5,C*02
$IIMTW,21.4,C*14
$IIVWT,107.,R,19.8,N,10.2,M,036.7,K*78
$IIHDG,305.,,,,*7F
!AIVDM,1,1,,B,15VB;@001=12w5tIBajU>l8J0@7a,0*24
!AIVDO,1,1,,,B39cWA00Dh@ljN6E=7JvowVUkP06,0*1F
$IIHDM,305.,M*14
$IIGLL,4415.549,N,01442.106,E,060012,A,A*5D
$IIZDA,060012,15,09,2012,,*56
$IIVTG,305.,T,,M,08.7,N,16.1,K,A*25
$IIXTE,A,A,0.85,R,N,A,*2B
$IIRMB,A,0.86,R,,,,,,,46.40,308.,,A,A*63
$IIDPT,0000.0,,*72
$IIDBT,0000.0,f,0000.0,M,,*79
$IIVLW,4592.0,N,036.60,N*44
$IIVHW,,,305.,M,08.41,N,15.57,K*12
!AIVDM,1,1,,A,D@2A``2<`O6D,0*02
!AIVDO,1,1,,,B39cWA00DP@lj@VE=8BvGwW5kP06,0*07
$IIVWR,083.,R,18.7,N,09.6,M,034.6,K*72
$IIMWD,,,053.,M,19.5,N,10.0,M*04
$IIMTA,20.5,C*02
$IIMTW,21.4,C*14
$IIVWT,108.,R,19.5,N,10.0,M,036.1,K*7E
$IIHDG,305.,,,,*7F
$IIHDM,305.,M*14
$IIGLL,4415.552,N,01442.106,E,060014,A,A*51
$IIZDA,060014,15,09,2012,,*50
$IIVTG,305.,T,,M,08.7,N,16.1,K,A*25
$IIXTE,A,A,0.85,R,N,A,*2B
$IIRMB,A,0.86,R,,,,,,,46.40,308.,,A,A*63
$IIDPT,0000.0,,*72
$IIDBT,0000.0,f,0000.0,M,,*79
$IIVLW,4592.0,N,036.60,N*44
$IIVHW,,,305.,M,08.39,N,15.54,K*1E
!AIVDM,1,1,,B,4@2A`UQujGV0=13d20IWT2700H8W,0*49
!AIVDO,1,1,,,B39cWA00D@@lj46E=96wgwWUkP06,0*37
$IIVWR,082.,R,18.4,N,09.5,M,034.1,K*74
$IIMWD,,,053.,M,19.3,N,09.9,M*03
$IIMTA,20.5,C*02
$IIMTW,21.4,C*14
$IIVWT,108.,R,19.3,N,09.9,M,035.7,K*7C
$IIHDG,306.,,,,*7C
$IIHDM,306.,M*17
$IIGLL,4415.552,N,01442.100,E,060014,A,A*57
$IIZDA,060014,15,09,2012,,*50
$IIVTG,306.,T,,M,08.4,N,15.6,K,A*21
!AIVDO,1,1,,,B39cWA00E@@lioVE=:72Ow`5kP06,0*36
$IIXTE,A,A,0.85,R,N,A,*2B
$IIRMB,A,0.86,R,,,,,,,46.40,308.,,A,A*63
$IIDPT,0073.2,,*74
$IIDBT,0240.1,f,0073.2,M,,*78
$IIVLW,4592.0,N,036.61,N*45
$IIVHW,,,307.,M,08.34,N,15.44,K*10
$IIVWR,080.,R,18.7,N,09.6,M,034.6,K*71
$IIMWD,,,053.,M,19.0,N,09.8,M*01
$IIMTA,20.5,C*02
$IIMTW,21.4,C*14
$IIVWT,107.,R,19.0,N,09.8,M,035.2,K*74
$IIHDG,308.,,,,*72
$IIHDM,308.,M*19
$IIGLL,4415.555,N,01442.095,E,060016,A,A*5F
$IIZDA,060016,15,09,2012,,*52
$IIVTG,306.,T,,M,08.4,N,15.6,K,A*21
$IIXTE,A,A,0.85,R,N,A,*2B
$IIRMB,A,0.86,R,,,,,,,46.40,308.,,A,A*63
$IIDPT,0073.2,,*74
!AIVDO,1,1,,,B39cWA00D@@lic6E=;31sw`UkP06,0*01
$IIDBT,0240.1,f,0073.2,M,,*78
$IIVLW,4592.0,N,036.61,N*45
$IIVHW,,,309.,M,08.31,N,15.38,K*10
$IIVWR,078.,R,18.7,N,09.6,M,034.6,K*76
$IIMWD,,,053.,M,19.1,N,09.8,M*00
$IIMTA,20.5,C*02
$IIMTW,21.3,C*13
$IIVWT,105.,R,19.1,N,09.8,M,035.4,K*71
$IIHDG,310.,,,,*7B
$IIHDM,310.,M*10
$IIGLL,4415.555,N,01442.095,E,060018,A,A*51
$IIZDA,060018,15,09,2012,,*5C
!AIVDO,1,1,,,B39cWA00Dh@liNVE=;w1Swa5kP06,0*61
$IIVTG,312.,T,,M,08.3,N,15.4,K,A*21
$IIXTE,A,A,0.85,R,N,A,*2B
$IIRMB,A,0.86,R,,,,,,,46.40,308.,,A,A*63
$IIDPT,0073.0,,*76
$IIDBT,0239.5,f,0073.0,M,,*70
$IIVLW,4592.0,N,036.61,N*45
$IIVHW,,,310.,M,08.26,N,15.29,K*1E
!AIVDM,1,1,,A,13SUtFUP4=134J4IF6;U0?vR04h0,0*74
!AIVDM,1,1,,B,D@2A`UR<`O6D,0*54
!AIVDO,1,1,,,B39cWA00EP@liAVE=<s1GwaUkP06,0*20
$IIVWR,078.,R,18.7,N,09.6,M,034.6,K*76
$IIMWD,,,054.,M,18.8,N,09.7,M*00
$IIMTA,20.5,C*02
$IIMTW,21.4,C*14
$IIVWT,104.,R,18.7,N,09.6,M,034.6,K*7A
$IIHDG,309.,,,,*73
$IIHDM,309.,M*18
$IIGLL,4415.558,N,01442.090,E,060018,A,A*59
$IIZDA,060018,15,09,2012,,*5C
$IIVTG,310.,T,,M,08.6,N,15.9,K,A*2B
$IIXTE,A,A,0.85,R,N,A,*2B
$IIRMB,A,0.86,R,,,,,,,46.40,308.,,A,A*63
$IIDPT,0073.0,,*76
$IIDBT,0239.5,f,0073.0,M,,*70
$IIVLW,4592.0,N,036.61,N*45
$IIVHW,,,309.,M,08.24,N,15.25,K*18
$IIVWR,078.,R,18.9,N,09.7,M,035.0,K*7E
$IIMWD,,,054.,M,18.7,N,09.6,M*0E
$IIMTA,20.5,C*02
$IIMTW,21.4,C*14
!AIVDO,1,1,,,B39cWA00D0@li5VE==k0wwb5kP06,0*7E
$IIVWT,103.,R,18.8,N,09.7,M,034.8,K*7D
$IIHDG,309.,,,,*73
$IIHDM,309.,M*18
$IIGLL,4415.558,N,01442.090,E,060020,A,A*52
$IIZDA,060020,15,09,2012,,*57
$IIVTG,310.,T,,M,08.6,N,15.9,K,A*2B
$IIXTE,A,A,0.85,R,N,A,*2B
$IIRMB,A,0.86,R,,,,,,,46.40,308.,,A,A*63
$IIDPT,0073.0,,*76
$IIDBT,0239.5,f,0073.0,M,,*70
$IIVLW,4592.0,N,036.62,N*46
$IIVHW,,,311.,M,08.21,N,15.21,K*10
!AIVDO,1,1,,,B39cWA00Dh@lhq6E=>g2KwbUkP06,0*52
$IIVWR,078.,R,19.1,N,09.8,M,035.4,K*7C
$IIMWD,,,052.,M,19.0,N,09.8,M*00
$IIMTA,20.5,C*02
$IIMTW,21.3,C*13
$IIVWT,103.,R,19.0,N,09.8,M,035.2,K*70
$IIHDG,312.,,,,*79
$IIHDM,312.,M*12
$IIGLL,4415.561,N,01442.085,E,060020,A,A*5C
$IIZDA,060020,15,09,2012,,*57
$IIVTG,310.,T,,M,08.4,N,15.6,K,A*26
$IIXTE,A,A,0.85,R,N,A,*2B
$IIRMB,A,0.86,R,,,,,,,46.40,308.,,A,A*63
$IIDPT,0073.0,,*76
$IIDBT,0239.5,f,0073.0,M,,*70
$IIVLW,4592.0,N,036.62,N*46
$IIVHW,,,311.,M,08.20,N,15.19,K*1A
!AIVDO,1,1,,,B39cWA00Dh@lhdVE=?c13wc5kP06,0*38
!AIVDM,1,1,,A,4@2A``1ujGV0F14u5PI:tqW00<0w,0*27
$IIVWR,077.,R,19.1,N,09.8,M,035.4,K*73
!AIVDM,1,1,,A,13e1k<001i13MadI>Rv<Fanb24h0,0*2F
$IIMWD,,,054.,M,18.9,N,09.7,M*01
$IIMTA,20.5,C*02
$IIMTW,21.3,C*13
$IIVWT,102.,R,18.9,N,09.7,M,035.0,K*74
$IIHDG,312.,,,,*79
!AIVDM,1,1,,A,15VB;@001=12w<lIBa=E>l8f0H=O,0*71
!AIVDO,1,1,,,B39cWA00F@@lhP6E=@g4?wcUkP06,0*54
$IIHDM,312.,M*12
$IIGLL,4415.564,N,01442.080,E,060022,A,A*5E
$IIZDA,060022,15,09,2012,,*55
$IIVTG,310.,T,,M,08.4,N,15.6,K,A*26
$IIXTE,A,A,0.85,R,N,A,*2B
$IIRMB,A,0.86,R,,,,,,,46.40,308.,,A,A*63
$IIDPT,0073.0,,*76
$IIDBT,0239.5,f,0073.0,M,,*70
$IIVLW,4592.0,N,036.62,N*46
$IIVHW,,,313.,M,08.20,N,15.18,K*19
$IIVWR,076.,R,19.7,N,10.1,M,036.5,K*77
$IIMWD,,,053.,M,19.2,N,09.9,M*02
$IIMTA,20.5,C*02
$IIMTW,21.4,C*14
$IIVWT,101.,R,19.2,N,09.9,M,035.6,K*75
$IIHDG,314.,,,,*7F
$IIHDM,314.,M*14
$IIGLL,4415.564,N,01442.080,E,060024,A,A*58
$IIZDA,060024,15,09,2012,,*53
!AIVDO,1,1,,,B39cWA00F@@lhD6E=Ak57wd5kP06,0*23
$IIVTG,310.,T,,M,08.8,N,16.3,K,A*2C
$IIXTE,A,A,0.85,R,N,A,*2B
$IIRMB,A,0.86,R,,,,,,,46.40,308.,,A,A*63
$IIDPT,0073.0,,*76
$IIDBT,0239.5,f,0073.0,M,,*70
$IIVLW,4592.0,N,036.63,N*47
$IIVHW,,,316.,M,08.20,N,15.19,K*1D
$IIVWR,076.,R,19.9,N,10.2,M,036.9,K*76
$IIMWD,,,056.,M,19.6,N,10.1,M*03
$IIMTA,20.5,C*02
$IIMTW,21.4,C*14
$IIVWT,100.,R,19.6,N,10.1,M,036.3,K*76
!AIVDM,2,1,9,B,53e1k<01r=lWTP7;?WU<U8Tu>0<DlDqB0V222216>0J7>6Gn0?C@DQj1DPH2,0*58
!AIVDM,2,2,9,B,E0C6H888880,2*5E
!AIVDO,1,1,,,B39cWA00Fh@lh76E=Bs3cwdUkP06,0*51
$IIHDG,315.,,,,*7E
$IIHDM,315.,M*15
$IIGLL,4415.568,N,01442.075,E,060024,A,A*5E
$IIZDA,060024,15,09,2012,,*53
$IIVTG,316.,T,,M,09.2,N,17.0,K,A*23
$IIXTE,A,A,0.85,R,N,A,*2B
$IIRMB,A,0.86,R,,,,,,,46.40,308.,,A,A*63
$IIDPT,0073.0,,*76
$IIDBT,0239.5,f,0073.0,M,,*70
$IIVLW,4592.0,N,036.63,N*47
!AIVDO,1,1,,,B39cWA00G0@lgrVE=D35Cwe5kP06,0*23
$IIVHW,,,313.,M,08.24,N,15.26,K*10
$IIVWR,074.,R,19.7,N,10.1,M,036.5,K*75
$IIMWD,,,052.,M,19.2,N,09.9,M*03
$IIMTA,20.4,C*03
$IIMTW,21.4,C*14
$IIVWT,099.,R,19.2,N,09.9,M,035.6,K*75
$IIHDG,314.,,,,*7F
$IIHDM,314.,M*14
$IIGLL,4415.571,N,01442.070,E,060026,A,A*51
$IIZDA,060026,15,09,2012,,*51
$IIVTG,316.,T,,M,09.2,N,17.0,K,A*23
$IIXTE,A,A,0.85,R,N,A,*2B
$IIRMB,A,0.86,R,,,,,,,46.40,308.,,A,A*63
$IIDPT,0073.0,,*76
$IIDBT,0239.5,f,0073.0,M,,*70
$IIVLW,4592.0,N,036.63,N*47
$IIVHW,,,313.,M,08.27,N,15.31,K*15
$IIVWR,074.,R,19.7,N,10.1,M,036.5,K*75
$IIMWD,,,053.,M,19.0,N,09.8,M*01
$IIMTA,20.5,C*02
!AIVDO,1,1,,,B39cWA00FP@lgf6E=E;4KweUkP06,0*56
$IIMTW,21.4,C*14
$IIVWT,099.,R,19.0,N,09.8,M,035.2,K*72
$IIHDG,313.,,,,*78
$IIHDM,313.,M*13
$IIGLL,4415.571,N,01442.070,E,060026,A,A*51
$IIZDA,060026,15,09,2012,,*51
$IIVTG,315.,T,,M,09.2,N,17.0,K,A*20
$IIXTE,A,A,0.85,R,N,A,*2B
$IIRMB,A,0.86,R,,,,,,,46.40,308.,,A,A*63
$IIDPT,0073.0,,*76
$IIDBT,0239.5,f,0073.0,M,,*70
$IIVLW,4592.0,N,036.63,N*47
!AIVDO,1,1,,,B39cWA00F@@lgQ6E=F?2Cwf5kP06,0*1B
$IIVHW,,,311.,M,08.29,N,15.35,K*1D
$IIVWR,074.,R,19.8,N,10.2,M,036.7,K*7B
$IIMWD,,,051.,M,19.1,N,09.8,M*02
$IIMTA,20.5,C*02
$IIMTW,21.4,C*14
$IIVWT,098.,R,19.1,N,09.8,M,035.4,K*74
$IIHDG,311.,,,,*7A
$IIHDM,310.,M*10
$IIGLL,4415.575,N,01442.065,E,060028,A,A*5F
$IIZDA,060028,15,09,2012,,*5F
$IIVTG,311.,T,,M,09.2,N,17.0,K,A*24
$IIXTE,A,A,0.85,R,N,A,*2B
!AIVDM,1,1,,A,13SUtFUP4=134iPIF4P52gvp0@A8,0*17
!AIVDO,1,1,,,B39cWA00F0@lgD6E=G?1swfUkP06,0*2C
$IIRMB,A,0.86,R,,,,,,,46.40,308.,,A,A*63
$IIDPT,0073.0,,*76
$IIDBT,0239.5,f,0073.0,M,,*70
$IIVLW,4592.0,N,036.64,N*40
$IIVHW,,,310.,M,08.33,N,15.43,K*16
$IIVWR,073.,R,19.8,N,10.2,M,036.7,K*7C
$IIMWD,,,049.,M,19.1,N,09.8,M*0B
$IIMTA,20.5,C*02
$IIMTW,21.4,C*14
!AIVDM,1,1,,B,D@2A``2<`O6D,0*01
!AIVDO,1,1,,,B39cWA00Dh@lg7VE=H;2;wg5kP06,0*44
$IIVWT,098.,R,19.1,N,09.8,M,035.4,K*74
$IIHDG,311.,,,,*7A
$IIHDM,311.,M*11
$IIGLL,4415.575,N,01442.065,E,060030,A,A*56
$IIZDA,060030,15,09,2012,,*56
$IIVTG,311.,T,,M,09.2,N,17.0,K,A*24
$IIXTE,A,A,0.85,R,N,A,*2B
$IIRMB,A,0.86,R,,,,,,,46.40,308.,,A,A*63
$IIDPT,0072.4,,*73
$IIDBT,0237.5,f,0072.4,M,,*7B
$IIVLW,4592.0,N,036.64,N*40
$IIVHW,,,311.,M,08.34,N,15.45,K*16
$IIVWR,073.,R,19.6,N,10.1,M,036.3,K*75
$IIMWD,,,049.,M,18.9,N,09.7,M*0D
$IIMTA,20.4,C*03
$IIMTW,21.4,C*14
$IIVWT,098.,R,18.9,N,09.7,M,035.0,K*76
$IIHDG,310.,,,,*7B
!AIVDM,1,1,,B,13e1k<001i13MQNI>SfdF9nt20T=,0*04
!AIVDO,1,1,,,B39cWA00D0@lfsVE=I71owgUkP06,0*63
$IIHDM,310.,M*10
$IIGLL,4415.578,N,01442.060,E,060030,A,A*5E
$IIZDA,060030,15,09,2012,,*56
$IIVTG,311.,T,,M,08.5,N,15.8,K,A*28
$IIXTE,A,A,0.85,R,N,A,*2B
$IIRMB,A,0.86,R,,,,,,,46.40,308.,,A,A*63
$IIDPT,0072.4,,*73
$IIDBT,0237.5,f,0072.4,M,,*7B
$IIVLW,4592.0,N,036.64,N*40
$IIVHW,,,312.,M,08.35,N,15.46,K*17
$IIVWR,072.,R,20.1,N,10.3,M,037.2,K*7B
$IIMWD,,,048.,M,19.2,N,09.9,M*08
$IIMTA,20.4,C*03
$IIMTW,21.4,C*14
!AIVDO,1,1,,,B39cWA00Eh@lfh6E=J;5;wh5kP06,0*71
$IIVWT,096.,R,19.2,N,09.9,M,035.6,K*7A
$IIHDG,313.,,,,*78
!AIVDM,1,1,,B,15VB;@001=12wCTIB``U>4920@C?,0*72
$IIHDM,313.,M*13
$IIGLL,4415.581,N,01442.055,E,060032,A,A*5C
$IIZDA,060032,15,09,2012,,*54
$IIVTG,311.,T,,M,08.5,N,15.8,K,A*28
$IIXTE,A,A,0.85,R,N,A,*2B
$IIRMB,A,0.86,R,,,,,,,46.40,308.,,A,A*63
$IIDPT,0072.4,,*73
$IIDBT,0237.5,f,0072.4,M,,*7B
$IIVLW,4592.0,N,036.65,N*41
$IIVHW,,,314.,M,08.35,N,15.46,K*11
!AIVDM,1,1,,B,4@2A``1ujGV0P14u5PI:tqW00<10,0*74
!AIVDM,1,1,,A,D@2A`UQ6DO6D,0*7A
!AIVDO,1,1,,,B39cWA00F0@lfS6E=K?2kwhUkP06,0*23
$IIVWR,072.,R,20.2,N,10.4,M,037.4,K*79
$IIMWD,,,049.,M,19.3,N,09.9,M*08
$IIMTA,20.4,C*03
$IIMTW,21.4,C*14
$IIVWT,096.,R,19.3,N,09.9,M,035.7,K*7A
$IIHDG,313.,,,,*78
$IIHDM,313.,M*13
$IIGLL,4415.581,N,01442.055,E,060032,A,A*5C
$IIZDA,060032,15,09,2012,,*54
!AIVDO,1,1,,A,B39cWA00F0@lfS6E=K?2kwhUkP06,0*62
$IIVTG,316.,T,,M,08.5,N,15.8,K,A*2F
!AIVDO,1,1,,,B39cWA00F0@lfFVE=LC2gwi5kP06,0*40
$IIXTE,A,A,0.85,R,N,A,*2B
$IIRMB,A,0.86,R,,,,,,,46.40,308.,,A,A*63
$IIDPT,0072.4,,*73
$IIDBT,0237.5,f,0072.4,M,,*7B
$IIVLW,4592.0,N,036.65,N*41
$IIVHW,,,312.,M,08.35,N,15.47,K*16
$IIVWR,074.,R,20.1,N,10.3,M,037.2,K*7D
$IIMWD,,,049.,M,19.2,N,09.9,M*09
$IIMTA,20.4,C*03
$IIMTW,21.4,C*14
$IIVWT,096.,R,19.2,N,09.9,M,035.6,K*7A
$IIHDG,312.,,,,*79
!AIVDM,1,1,,B,4@2A`UQujGV0Q13d20IWT2700HDE,0*4B
!AIVDO,1,1,,,B39cWA00Eh@lf:6E=MG3cwiUkP06,0*67
$IIHDM,312.,M*12
$IIGLL,4415.585,N,01442.050,E,060034,A,A*5B
$IIZDA,060034,15,09,2012,,*52
$IIVTG,312.,T,,M,08.9,N,16.5,K,A*29
$IIXTE,A,A,0.85,R,N,A,*2B
$IIRMB,A,0.86,R,,,,,,,46.40,308.,,A,A*63
$IIDPT,0072.4,,*73
$IIDBT,0237.5,f,0072.4,M,,*7B
$IIVLW,4592.0,N,036.65,N*41
$IIVHW,,,314.,M,08.37,N,15.50,K*14
$IIVWR,073.,R,20.3,N,10.4,M,037.6,K*7B
$IIMWD,,,050.,M,19.5,N,10.0,M*07
$IIMTA,20.4,C*03
!AIVDO,1,1,,,B39cWA00G0@leu6E=NO4cwj5kP06,0*1E
$IIMTW,21.4,C*14
$IIVWT,097.,R,19.5,N,10.0,M,036.1,K*79
$IIHDG,314.,,,,*7F
$IIHDM,314.,M*14
$IIGLL,4415.585,N,01442.050,E,060036,A,A*59
$IIZDA,060036,15,09,2012,,*50
$IIVTG,312.,T,,M,08.9,N,16.5,K,A*29
$IIXTE,A,A,0.85,R,N,A,*2B
$IIRMB,A,0.86,R,,,,,,,46.40,308.,,A,A*63
$IIDPT,0072.4,,*73
$IIDBT,0237.5,f,0072.4,M,,*7B
$IIVLW,4592.0,N,036.65,N*41
$IIVHW,,,315.,M,08.39,N,15.54,K*1F
$IIVWR,074.,R,20.4,N,10.5,M,037.8,K*74
$IIMWD,,,051.,M,19.5,N,10.0,M*06
$IIMTA,20.4,C*03
$IIMTW,21.4,C*14
$IIVWT,098.,R,19.8,N,10.2,M,036.7,K*7F
$IIHDG,315.,,,,*7E
$IIHDM,315.,M*15
!AIVDO,1,1,,,B39cWA00H0@leh6E=Oc4GwjUkP06,0*65
$IIGLL,4415.588,N,01442.045,E,060036,A,A*50
$IIZDA,060036,15,09,2012,,*50
$IIVTG,315.,T,,M,09.3,N,17.2,K,A*23
$IIXTE,A,A,0.85,R,N,A,*2B
$IIRMB,A,0.86,R,,,,,,,46.30,308.,,A,A*64
$IIDPT,0072.4,,*73
$IIDBT,0237.5,f,0072.4,M,,*7B
$IIVLW,4592.0,N,036.66,N*42
$IIVHW,,,315.,M,08.42,N,15.59,K*1E
$IIVWR,075.,R,20.5,N,10.5,M,038.0,K*73
$IIMWD,,,053.,M,20.0,N,10.3,M*08
!AIVDO,1,1,,,B39cWA00GP@leRVE=Pk3Gwk5kP06,0*21
$IIMTA,20.4,C*03
$IIMTW,21.4,C*14
$IIVWT,099.,R,20.0,N,10.3,M,037.0,K*7B
$IIHDG,313.,,,,*78
$IIHDM,313.,M*13
$IIGLL,4415.588,N,01442.045,E,060038,A,A*5E
$IIZDA,060038,15,09,2012,,*5E
!AIVDM,1,1,,A,13SUtFUP4>135:PIF2`55?w<04h0,0*37
$IIVTG,315.,T,,M,09.3,N,17.2,K,A*23
$IIXTE,A,A,0.85,R,N,A,*2B
$IIRMB,A,0.86,R,,,,,,,46.30,308.,,A,A*64
$IIDPT,0072.4,,*73
$IIDBT,0237.5,f,0072.4,M,,*7B
$IIVLW,4592.0,N,036.66,N*42
$IIVHW,,,313.,M,08.52,N,15.78,K*1A
!AIVDM,1,1,,B,13=?Sj002;11`ddIF;TdsbK<0D0K,0*18
!AIVDO,1,1,,,B39cWA00Gh@leE6E=Qs3GwkUkP06,0*17
$IIVWR,076.,R,20.5,N,10.5,M,038.0,K*70
$IIMWD,,,053.,M,20.1,N,10.3,M*09
$IIMTA,20.4,C*03
$IIMTW,21.4,C*14
$IIVWT,100.,R,20.1,N,10.3,M,037.2,K*79
$IIHDG,313.,,,,*78
$IIHDM,313.,M*13
$IIGLL,4415.588,N,01442.045,E,060038,A,A*5E
$IIZDA,060038,15,09,2012,,*5E
$IIVTG,313.,T,,M,09.8,N,18.1,K,A*22
$IIXTE,A,A,0.85,R,N,A,*2B
$IIRMB,A,0.86,R,,,,,,,46.30,308.,,A,A*64
$IIDPT,0072.4,,*73
!AIVDO,1,1,,,B39cWA00Gh@le7VE=S747wl5kP06,0*53
$IIDBT,0237.5,f,0072.4,M,,*7B
$IIVLW,4592.0,N,036.66,N*42
$IIVHW,,,313.,M,08.58,N,15.88,K*1F
$IIVWR,077.,R,20.5,N,10.5,M,038.0,K*71
$IIMWD,,,054.,M,20.3,N,10.4,M*0B
$IIMTA,20.4,C*03
$IIMTW,21.4,C*14
$IIVWT,101.,R,20.3,N,10.4,M,037.6,K*79
$IIHDG,313.,,,,*78
$IIHDM,313.,M*13
!AIVDO,1,1,,,B39cWA00GP@ldr6E=T?3kwlUkP06,0*7B
$IIGLL,4415.596,N,01442.034,E,060040,A,A*58
$IIZDA,060040,15,09,2012,,*51
$IIVTG,313.,T,,M,09.8,N,18.1,K,A*22
$IIXTE,A,A,0.85,R,N,A,*2B
$IIRMB,A,0.86,R,,,,,,,46.30,308.,,A,A*64
$IIDPT,0072.4,,*73
$IIDBT,0237.5,f,0072.4,M,,*7B
$IIVLW,4592.0,N,036.66,N*42
$IIVHW,,,314.,M,08.62,N,15.97,K*1F
$IIVWR,079.,R,20.3,N,10.4,M,037.6,K*71
$IIMWD,,,056.,M,20.5,N,10.5,M*0E
$IIMTA,20.4,C*03
$IIMTW,21.4,C*14
$IIVWT,103.,R,20.5,N,10.5,M,038.0,K*75
$IIHDG,313.,,,,*78
$IIHDM,313.,M*13
$IIGLL,4415.596,N,01442.034,E,060042,A,A*5A
$IIZDA,060042,15,09,2012,,*53
$IIVTG,315.,T,,M,09.6,N,17.8,K,A*2C
!AIVDO,1,1,,,B39cWA00G0@lde6E=UC2cwm5kP06,0*19
$IIXTE,A,A,0.85,R,N,A,*2B
$IIRMB,A,0.86,R,,,,,,,46.30,308.,,A,A*64
$IIDPT,0072.4,,*73
$IIDBT,0237.5,f,0072.4,M,,*7B
!AIVDM,1,1,,A,4@2A``1ujGV0b14u5PI:tqW00<10,0*45
$IIVLW,4592.0,N,036.67,N*43
$IIVHW,,,312.,M,08.67,N,16.05,K*14
$IIVWR,080.,R,19.6,N,10.1,M,036.3,K*79
$IIMWD,,,057.,M,20.4,N,10.5,M*0E
$IIMTA,20.4,C*03
$IIMTW,21.4,C*14
$IIVWT,103.,R,20.4,N,10.5,M,037.8,K*73
$IIHDG,311.,,,,*7A
$IIHDM,311.,M*11
!AIVDM,1,1,,A,15VB;@001=12wJ:IB`3U?49F0<0U,0*55
!AIVDO,1,1,,,B39cWA00G0@ldOVE=VK2gwmUkP06,0*3C
$IIGLL,4415.599,N,01442.029,E,060042,A,A*59
$IIZDA,060042,15,09,2012,,*53
$IIVTG,312.,T,,M,09.4,N,17.4,K,A*25
$IIXTE,A,A,0.85,R,N,A,*2B
$IIRMB,A,0.86,R,,,,,,,46.30,308.,,A,A*64
$IIDPT,0072.4,,*73
!AIVDM,1,1,,A,D@2A``0c`Nfp,0*3A
!AIVDO,1,1,,,B39cWA00E@@ldBVE=WG0kwn5kP06,0*23
$IIDBT,0237.5,f,0072.4,M,,*7B
$IIVLW,4592.0,N,036.67,N*43
$IIVHW,,,309.,M,08.72,N,16.15,K*1B
$IIVWR,081.,R,19.6,N,10.1,M,036.3,K*78
$IIMWD,,,055.,M,20.0,N,10.3,M*0E
$IIMTA,20.4,C*03
$IIMTW,21.4,C*14
$IIVWT,105.,R,20.0,N,10.3,M,037.0,K*7F
$IIHDG,309.,,,,*73
$IIHDM,309.,M*18
$IIGLL,4415.599,N,01442.029,E,060044,A,A*5F
$IIZDA,060044,15,09,2012,,*55
$IIVTG,312.,T,,M,09.4,N,17.4,K,A*25
$IIXTE,A,A,0.85,R,N,A,*2B
$IIRMB,A,0.86,R,,,,,,,46.30,308.,,A,A*64
$IIDPT,0000.0,,*72
$IIDBT,0000.0,f,0000.0,M,,*79
$IIVLW,4592.0,N,036.67,N*43
$IIVHW,,,309.,M,08.73,N,16.17,K*18
!AIVDM,1,1,,A,4@2A`UQujGV0c13d20IWT2700L0E,0*0A
!AIVDO,1,1,,,B39cWA00E@@ld5VE=`G1kwnUkP06,0*02
$IIVWR,082.,R,19.6,N,10.1,M,036.3,K*7B
$IIMWD,,,055.,M,20.1,N,10.3,M*0F
$IIMTA,20.4,C*03
$IIMTW,21.4,C*14
$IIVWT,106.,R,20.1,N,10.3,M,037.2,K*7F
$IIHDG,309.,,,,*73
$IIHDM,309.,M*18
$IIGLL,4415.602,N,01442.023,E,060044,A,A*54
$IIZDA,060044,15,09,2012,,*55
$IIVTG,310.,T,,M,09.0,N,16.7,K,A*21
$IIXTE,A,A,0.85,R,N,A,*2B
$IIRMB,A,0.86,R,,,,,,,46.30,308.,,A,A*64
$IIDPT,0000.0,,*72
!AIVDO,1,1,,,B39cWA00F0@lcpVE=aG2Swo5kP06,0*68
$IIDBT,0000.0,f,0000.0,M,,*79
$IIVLW,4592.0,N,036.68,N*4C
$IIVHW,,,310.,M,08.73,N,16.16,K*11
$IIVWR,084.,R,19.5,N,10.0,M,036.1,K*7D
$IIMWD,,,057.,M,20.4,N,10.5,M*0E
$IIMTA,20.4,C*03
$IIMTW,21.3,C*13
$IIVWT,108.,R,20.4,N,10.5,M,037.8,K*78
$IIHDG,310.,,,,*7B
$IIHDM,310.,M*10
$IIGLL,4415.606,N,01442.018,E,060046,A,A*5A
$IIZDA,060046,15,09,2012,,*57
$IIVTG,312.,T,,M,08.7,N,16.1,K,A*23
!AIVDM,1,1,,A,13SUtFUP4?135RTIF0m55?wL0<0<,0*79
$IIXTE,A,A,0.85,R,N,A,*2B
$IIRMB,A,0.86,R,,,,,,,46.30,308.,,A,A*64
$IIDPT,0000.0,,*72
!AIVDO,1,1,,,B39cWA00F0@lcd6E=bK2WwoUkP06,0*77
$IIDBT,0000.0,f,0000.0,M,,*79
$IIVLW,4592.0,N,036.68,N*4C
$IIVHW,,,309.,M,08.71,N,16.13,K*1E
$IIVWR,085.,R,19.3,N,09.9,M,035.7,K*7E
$IIMWD,,,059.,M,20.5,N,10.5,M*01
$IIMTA,20.4,C*03
$IIMTW,21.3,C*13
$IIVWT,109.,R,20.5,N,10.5,M,038.0,K*7F
$IIHDG,310.,,,,*7B
$IIHDM,310.,M*10
$IIGLL,4415.606,N,01442.018,E,060048,A,A*54
!AIVDO,1,1,,,B39cWA00F@@lcO6E=cO2owp5kP06,0*6E
$IIZDA,060048,15,09,2012,,*59
$IIVTG,312.,T,,M,08.7,N,16.1,K,A*23
$IIXTE,A,A,0.85,R,N,A,*2B
$IIRMB,A,0.86,R,,,,,,,46.30,308.,,A,A*64
$IIDPT,0000.0,,*72
$IIDBT,0000.0,f,0000.0,M,,*79
$IIVLW,4592.0,N,036.68,N*4C
$IIVHW,,,309.,M,08.68,N,16.08,K*1C
$IIVWR,083.,R,19.4,N,10.0,M,035.9,K*70
$IIMWD,,,057.,M,20.2,N,10.4,M*09
$IIMTA,20.4,C*03
$IIMTW,21.3,C*13
$IIVWT,108.,R,20.2,N,10.4,M,037.4,K*73
!AIVDM,1,1,,B,D@2A`UPsDNfp,0*58
!AIVDO,1,1,,,B39cWA00F@@lcAVE=dS2SwpUkP06,0*47
$IIHDG,309.,,,,*73
$IIHDM,309.,M*18
$IIGLL,4415.609,N,01442.013,E,060048,A,A*50
$IIZDA,060048,15,09,2012,,*59
$IIVTG,312.,T,,M,09.0,N,16.7,K,A*23
$IIXTE,A,A,0.85,R,N,A,*2B
$IIRMB,A,0.86,R,,,,,,,46.30,308.,,A,A*64
$IIDPT,0073.0,,*76
$IIDBT,0239.5,f,0073.0,M,,*70
$IIVLW,4592.0,N,036.69,N*4D
$IIVHW,,,307.,M,08.66,N,16.04,K*10
$IIVWR,082.,R,19.4,N,10.0,M,035.9,K*71
