$IIGLL,5027.776667,N,412.690754,W,123327,A*26
$IIDBT,0000.0,f,3.32077789306641,M,,*7b
$IIGLL,5027.776732,N,412.690799,W,123329,A*28
$IIDBT,0000.0,f,3.32077789306641,M,,*7b
$IIGLL,5027.776758,N,412.690819,W,123330,A*2b
$IIDBT,0000.0,f,3.32077789306641,M,,*7b
$IIGLL,5027.776783,N,412.690854,W,123331,A*25
$IIDBT,0000.0,f,3.32077789306641,M,,*7b
$IIGLL,5027.776778,N,412.690824,W,123332,A*25
$IIDBT,0000.0,f,3.32077789306641,M,,*7b
$IIGLL,5027.776853,N,412.690829,W,123333,A*2f
$IIDBT,0000.0,f,3.32077789306641,M,,*7b
$IIGLL,5027.776914,N,412.690854,W,123334,A*20
$IIDBT,0000.0,f,3.32077789306641,M,,*7b
$IIGLL,5027.776949,N,412.690910,W,123335,A*28
$IIDBT,0000.0,f,3.32077789306641,M,,*7b
$IIGLL,5027.776994,N,412.691005,W,123336,A*27
$IIDBT,0000.0,f,3.32077789306641,M,,*7b
$IIGLL,5027.776984,N,412.690980,W,123337,A*22
$IIDBT,0000.0,f,3.32077789306641,M,,*7b
$IIGLL,5027.776969,N,412.690975,W,123338,A*24
$IIDBT,0000.0,f,3.32077789306641,M,,*7b
$IIGLL,5027.776919,N,412.691005,W,123339,A*2d
$IIDBT,0000.0,f,3.32077789306641,M,,*7b
$IIGLL,5027.776903,N,412.691066,W,123340,A*2d
$IIDBT,0000.0,f,3.34449768066406,M,,*7f
$IIGLL,5027.776888,N,412.691146,W,123341,A*2d
$IIDBT,0000.0,f,3.34449768066406,M,,*7f
$IIGLL,5027.776888,N,412.691201,W,123342,A*2e
$IIDBT,0000.0,f,3.34449768066406,M,,*7f
$IIGLL,5027.776888,N,412.691186,W,123343,A*23
$IIDBT,0000.0,f,3.34449768066406,M,,*7f
$IIGLL,5027.776858,N,412.691166,W,123344,A*27
$IIDBT,0000.0,f,3.34449768066406,M,,*7f
$IIGLL,5027.776843,N,412.691136,W,123345,A*29
$IIDBT,0000.0,f,3.32077789306641,M,,*7b
$IIGLL,5027.776818,N,412.691146,W,123346,A*23
$IIDBT,0000.0,f,3.32077789306641,M,,*7b
$IIGLL,5027.776813,N,412.691131,W,123347,A*29
$IIDBT,0000.0,f,3.32077789306641,M,,*7b
$IIGLL,5027.776793,N,412.691086,W,123348,A*2c
$IIDBT,0000.0,f,3.29705810546875,M,,*77
$IIGLL,5027.776783,N,412.691086,W,123349,A*2c
$IIDBT,0000.0,f,3.29705810546875,M,,*77
$IIGLL,5027.776798,N,412.691030,W,123350,A*23
$IIDBT,0000.0,f,3.32077789306641,M,,*7b
$IIGLL,5027.776793,N,412.691025,W,123351,A*2d
$IIDBT,0000.0,f,3.32077789306641,M,,*7b
$IIGLL,5027.776783,N,412.690985,W,123352,A*2d
$IIDBT,0000.0,f,3.32077789306641,M,,*7b
$IIGLL,5027.776748,N,412.690905,W,123353,A*23
$IIDBT,0000.0,f,3.32077789306641,M,,*7b
$IIGLL,5027.776722,N,412.690910,W,123354,A*2c
$IIDBT,0000.0,f,3.32077789306641,M,,*7b
$IIGLL,5027.776738,N,412.690879,W,123355,A*28
$IIDBT,0000.0,f,3.32077789306641,M,,*7b
$IIGLL,5027.776667,N,412.690849,W,123356,A*23
$IIDBT,0000.0,f,3.32077789306641,M,,*7b
$IIGLL,5027.776607,N,412.690829,W,123357,A*22
$IIDBT,0000.0,f,3.32077789306641,M,,*7b
$IIGLL,5027.776607,N,412.690799,W,123358,A*29
$IIDBT,0000.0,f,3.32077789306641,M,,*7b
$IIGLL,5027.776642,N,412.690849,W,123359,A*2b
$IIDBT,0000.0,f,3.32077789306641,M,,*7b
$IIGLL,5027.776632,N,412.690854,W,123400,A*2b
$IIDBT,0000.0,f,3.32077789306641,M,,*7b
$IIGLL,5027.776592,N,412.690849,W,123401,A*2f
$IIDBT,0000.0,f,3.32077789306641,M,,*7b
$IIGLL,5027.776511,N,412.690859,W,123402,A*26
$IIDBT,0000.0,f,3.32077789306641,M,,*7b
$IIGLL,5027.776491,N,412.690879,W,123403,A*2c
$IIDBT,0000.0,f,3.32077789306641,M,,*7b
$IIGLL,5027.776486,N,412.690874,W,123404,A*20
$IIDBT,0000.0,f,3.29705810546875,M,,*77
$IIGLL,5027.776451,N,412.690824,W,123405,A*2e
$IIDBT,0000.0,f,3.29705810546875,M,,*77
$IIGLL,5027.776486,N,412.690774,W,123406,A*2d
$IIDBT,0000.0,f,3.29705810546875,M,,*77
$IIGLL,5027.776561,N,412.690844,W,123407,A*28
$IIDBT,0000.0,f,3.29705810546875,M,,*77
$IIGLL,5027.776567,N,412.690869,W,123408,A*2e
$IIDBT,0000.0,f,3.29705810546875,M,,*77
$IIGLL,5027.776567,N,412.690869,W,123409,A*2f
$IIDBT,0000.0,f,3.32077789306641,M,,*7b
$IIGLL,5027.776622,N,412.690935,W,123410,A*2d
$IIDBT,0000.0,f,3.32077789306641,M,,*7b
$IIGLL,5027.776622,N,412.690935,W,123411,A*2c
$IIDBT,0000.0,f,3.32077789306641,M,,*7b
$IIGLL,5027.776627,N,412.690980,W,123412,A*24
$IIDBT,0000.0,f,3.29705810546875,M,,*77
$IIGLL,5027.776612,N,412.690995,W,123413,A*27
$IIDBT,0000.0,f,3.32077789306641,M,,*7b
$IIGLL,5027.776622,N,412.691010,W,123414,A*26
$IIDBT,0000.0,f,3.32077789306641,M,,*7b
$IIGLL,5027.776607,N,412.690995,W,123415,A*25
$IIDBT,0000.0,f,3.34449768066406,M,,*7f
$IIGLL,5027.776622,N,412.690980,W,123416,A*25
$IIDBT,0000.0,f,3.32077789306641,M,,*7b
$IIGLL,5027.776592,N,412.690960,W,123417,A*22
$IIDBT,0000.0,f,3.29705810546875,M,,*77
$IIGLL,5027.776577,N,412.690995,W,123418,A*2c
$IIDBT,0000.0,f,3.29705810546875,M,,*77
$IIGLL,5027.776551,N,412.690945,W,123419,A*24
$IIDBT,0000.0,f,3.27333831787109,M,,*76
$IIGLL,5027.776536,N,412.690935,W,123420,A*28
$IIDBT,0000.0,f,3.24961853027344,M,,*7a
$IIGLL,5027.776531,N,412.690970,W,123421,A*2f
$IIDBT,0000.0,f,3.27333831787109,M,,*76
$IIGLL,5027.776546,N,412.691035,W,123422,A*25
$IIDBT,0000.0,f,3.27333831787109,M,,*76
$IIGLL,5027.776546,N,412.691035,W,123423,A*24
$IIDBT,0000.0,f,3.29705810546875,M,,*77
$IIGLL,5027.776536,N,412.691076,W,123424,A*23
$IIDBT,0000.0,f,3.24961853027344,M,,*7a
$IIGLL,5027.776516,N,412.691066,W,123425,A*21
$IIDBT,0000.0,f,3.27333831787109,M,,*76
$IIGLL,5027.776531,N,412.691231,W,123426,A*27
$IIDBT,0000.0,f,3.29705810546875,M,,*77
$IIGLL,5027.776541,N,412.691252,W,123427,A*24
$IIDBT,0000.0,f,3.32077789306641,M,,*7b
$IIGLL,5027.776546,N,412.691262,W,123428,A*2f
$IIDBT,0000.0,f,3.29705810546875,M,,*77
$IIGLL,5027.776612,N,412.691277,W,123429,A*28
$IIDBT,0000.0,f,3.29705810546875,M,,*77
$IIGLL,5027.776677,N,412.691342,W,123430,A*24
$IIDBT,0000.0,f,3.29705810546875,M,,*77
$IIGLL,5027.776657,N,412.691337,W,123431,A*25
$IIDBT,0000.0,f,3.32077789306641,M,,*7b
$IIGLL,5027.776662,N,412.691347,W,123432,A*27
$IIDBT,0000.0,f,3.29705810546875,M,,*77
$IIGLL,5027.776662,N,412.691347,W,123433,A*26
$IIDBT,0000.0,f,3.27333831787109,M,,*76
$IIGLL,5027.776667,N,412.691352,W,123434,A*20
$IIDBT,0000.0,f,3.27333831787109,M,,*76
$IIGLL,5027.776672,N,412.691342,W,123435,A*24
$IIDBT,0000.0,f,3.29705810546875,M,,*77
$IIGLL,5027.776697,N,412.691357,W,123436,A*28
$IIDBT,0000.0,f,3.29705810546875,M,,*77
$IIGLL,5027.776717,N,412.691347,W,123437,A*21
$IIDBT,0000.0,f,3.29705810546875,M,,*77
$IIGLL,5027.776738,N,412.691312,W,123438,A*23
$IIDBT,0000.0,f,3.29705810546875,M,,*77
$IIGLL,5027.776788,N,412.691287,W,123439,A*24
$IIDBT,0000.0,f,3.29705810546875,M,,*77
$IIGLL,5027.776768,N,412.691252,W,123440,A*2c
$IIDBT,0000.0,f,3.29705810546875,M,,*77
$IIGLL,5027.776818,N,412.691257,W,123441,A*20
$IIDBT,0000.0,f,3.29705810546875,M,,*77
$IIGLL,5027.776858,N,412.691287,W,123442,A*2a
$IIDBT,0000.0,f,3.27333831787109,M,,*76
$IIGLL,5027.776939,N,412.691322,W,123443,A*23
$IIDBT,0000.0,f,3.29705810546875,M,,*77
$IIGLL,5027.776924,N,412.691372,W,123444,A*2d
$IIDBT,0000.0,f,3.32077789306641,M,,*7b
$IIGLL,5027.776934,N,412.691327,W,123445,A*2d
$IIDBT,0000.0,f,3.32077789306641,M,,*7b
$IIGLL,5027.776939,N,412.691312,W,123446,A*25
$IIDBT,0000.0,f,3.32077789306641,M,,*7b
$IIGLL,5027.776974,N,412.691322,W,123447,A*2e
$IIDBT,0000.0,f,3.29705810546875,M,,*77
$IIGLL,5027.777019,N,412.691287,W,123448,A*2c
$IIDBT,0000.0,f,3.29705810546875,M,,*77
$IIGLL,5027.777004,N,412.691247,W,123449,A*2d
$IIDBT,0000.0,f,3.32077789306641,M,,*7b
$IIGLL,5027.777004,N,412.691226,W,123450,A*22
$IIDBT,0000.0,f,3.32077789306641,M,,*7b
$IIGLL,5027.777039,N,412.691101,W,123451,A*2b
$IIDBT,0000.0,f,3.32077789306641,M,,*7b
$IIGLL,5027.777039,N,412.691101,W,123452,A*28
$IIDBT,0000.0,f,3.32077789306641,M,,*7b
$IIGLL,5027.777064,N,412.691055,W,123453,A*21
$IIDBT,0000.0,f,3.32077789306641,M,,*7b
$IIGLL,5027.777105,N,412.690940,W,123454,A*2c
$IIDBT,0000.0,f,3.32077789306641,M,,*7b
$IIGLL,5027.777105,N,412.690940,W,123455,A*2d
$IIDBT,0000.0,f,3.32077789306641,M,,*7b
$IIGLL,5027.777090,N,412.690879,W,123456,A*28
$IIDBT,0000.0,f,3.29705810546875,M,,*77
$IIGLL,5027.777090,N,412.690849,W,123457,A*2a
$IIDBT,0000.0,f,3.29705810546875,M,,*77
$IIGLL,5027.777069,N,412.690879,W,123458,A*20
$IIDBT,0000.0,f,3.29705810546875,M,,*77
$IIGLL,5027.777069,N,412.690764,W,123459,A*22
$IIDBT,0000.0,f,3.29705810546875,M,,*77
$IIGLL,5027.777019,N,412.690683,W,123500,A*20
$IIDBT,0000.0,f,3.29705810546875,M,,*77
$IIGLL,5027.776964,N,412.690638,W,123501,A*23
$IIDBT,0000.0,f,3.27333831787109,M,,*76
$IIGLL,5027.776949,N,412.690603,W,123502,A*27
$IIDBT,0000.0,f,3.29705810546875,M,,*77
$IIGLL,5027.776939,N,412.690527,W,123503,A*24
$IIDBT,0000.0,f,3.29705810546875,M,,*77
$IIGLL,5027.776944,N,412.690527,W,123504,A*29
$IIDBT,0000.0,f,3.29705810546875,M,,*77
$IIGLL,5027.776924,N,412.690527,W,123505,A*2e
$IIDBT,0000.0,f,3.29705810546875,M,,*77
$IIGLL,5027.776949,N,412.690502,W,123506,A*21
$IIDBT,0000.0,f,3.29705810546875,M,,*77
$IIGLL,5027.776979,N,412.690472,W,123507,A*25
$IIDBT,0000.0,f,3.29705810546875,M,,*77
$IIGLL,5027.776994,N,412.690437,W,123508,A*28
$IIDBT,0000.0,f,3.29705810546875,M,,*77
$IIGLL,5027.776984,N,412.690447,W,123509,A*2f
$IIDBT,0000.0,f,3.29705810546875,M,,*77
$IIGLL,5027.776964,N,412.690457,W,123510,A*28
$IIDBT,0000.0,f,3.29705810546875,M,,*77
$IIGLL,5027.776934,N,412.690507,W,123511,A*28
$IIDBT,0000.0,f,3.29705810546875,M,,*77
$IIGLL,5027.776939,N,412.690442,W,123512,A*26
$IIDBT,0000.0,f,3.29705810546875,M,,*77
$IIGLL,5027.776924,N,412.690356,W,123513,A*29
$IIDBT,0000.0,f,3.29705810546875,M,,*77
$IIGLL,5027.776914,N,412.690316,W,123514,A*29
$IIDBT,0000.0,f,3.32077789306641,M,,*7b
$IIGLL,5027.776888,N,412.690256,W,123515,A*29
$IIDBT,0000.0,f,3.29705810546875,M,,*77
$IIGLL,5027.776853,N,412.690276,W,123516,A*2e
$IIDBT,0000.0,f,3.29705810546875,M,,*77
$IIGLL,5027.776878,N,412.690221,W,123517,A*24
$IIDBT,0000.0,f,3.27333831787109,M,,*76
$IIGLL,5027.776878,N,412.690115,W,123518,A*2f
$IIDBT,0000.0,f,3.27333831787109,M,,*76
$IIGLL,5027.776848,N,412.690125,W,123519,A*2e
$IIDBT,0000.0,f,3.27333831787109,M,,*76
$IIGLL,5027.776748,N,412.690125,W,123520,A*2b
$IIDBT,0000.0,f,3.27333831787109,M,,*76
$IIGLL,5027.776677,N,412.690145,W,123521,A*21
$IIDBT,0000.0,f,3.29705810546875,M,,*77
$IIGLL,5027.776632,N,412.690130,W,123522,A*21
$IIDBT,0000.0,f,3.29705810546875,M,,*77
$IIGLL,5027.776597,N,412.690130,W,123523,A*2c
$IIDBT,0000.0,f,3.29705810546875,M,,*77
$IIGLL,5027.776567,N,412.690135,W,123524,A*21
$IIDBT,0000.0,f,3.29705810546875,M,,*77
$IIGLL,5027.776597,N,412.690050,W,123525,A*2d
$IIDBT,0000.0,f,3.29705810546875,M,,*77
$IIGLL,5027.776597,N,412.690050,W,123526,A*2e
$IIDBT,0000.0,f,3.29705810546875,M,,*77
$IIGLL,5027.776592,N,412.690009,W,123527,A*26
$IIDBT,0000.0,f,3.29705810546875,M,,*77
$IIGLL,5027.776597,N,412.690004,W,123528,A*21
$IIDBT,0000.0,f,3.29705810546875,M,,*77
$IIGLL,5027.776597,N,412.689989,W,123529,A*24
$IIDBT,0000.0,f,3.29705810546875,M,,*77
$IIGLL,5027.776607,N,412.689989,W,123530,A*26
$IIDBT,0000.0,f,3.29705810546875,M,,*77
$IIGLL,5027.776602,N,412.689989,W,123531,A*22
$IIDBT,0000.0,f,3.29705810546875,M,,*77
$IIGLL,5027.776602,N,412.689989,W,123532,A*21
$IIDBT,0000.0,f,3.27333831787109,M,,*76
$IIGLL,5027.776607,N,412.689969,W,123533,A*2b
$IIDBT,0000.0,f,3.27333831787109,M,,*76
$IIGLL,5027.776607,N,412.689949,W,123534,A*2e
$IIDBT,0000.0,f,3.27333831787109,M,,*76
$IIGLL,5027.776592,N,412.689934,W,123535,A*2a
$IIDBT,0000.0,f,3.29705810546875,M,,*77
$IIGLL,5027.776561,N,412.689954,W,123536,A*23
$IIDBT,0000.0,f,3.27333831787109,M,,*76
$IIGLL,5027.776561,N,412.689999,W,123537,A*23
$IIDBT,0000.0,f,3.29705810546875,M,,*77
$IIGLL,5027.776577,N,412.690035,W,123538,A*2c
$IIDBT,0000.0,f,3.27333831787109,M,,*76
$IIGLL,5027.776582,N,412.690100,W,123539,A*20
$IIDBT,0000.0,f,3.27333831787109,M,,*76
$IIGLL,5027.776602,N,412.690145,W,123540,A*24
$IIDBT,0000.0,f,3.29705810546875,M,,*77
$IIGLL,5027.776597,N,412.690195,W,123541,A*27
$IIDBT,0000.0,f,3.29705810546875,M,,*77
$IIGLL,5027.776592,N,412.690221,W,123542,A*2d
$IIDBT,0000.0,f,3.29705810546875,M,,*77
$IIGLL,5027.776597,N,412.690226,W,123543,A*2e
$IIDBT,0000.0,f,3.29705810546875,M,,*77
$IIGLL,5027.776622,N,412.690266,W,123544,A*20
$IIDBT,0000.0,f,3.29705810546875,M,,*77
$IIGLL,5027.776612,N,412.690291,W,123545,A*2a
$IIDBT,0000.0,f,3.27333831787109,M,,*76
$IIGLL,5027.776607,N,412.690276,W,123546,A*24
$IIDBT,0000.0,f,3.27333831787109,M,,*76
$IIGLL,5027.776602,N,412.690321,W,123547,A*23
$IIDBT,0000.0,f,3.27333831787109,M,,*76
$IIGLL,5027.776582,N,412.690291,W,123548,A*2d
$IIDBT,0000.0,f,3.27333831787109,M,,*76
$IIGLL,5027.776577,N,412.690321,W,123549,A*2c
$IIDBT,0000.0,f,3.27333831787109,M,,*76
$IIGLL,5027.776572,N,412.690331,W,123550,A*20
$IIDBT,0000.0,f,3.27333831787109,M,,*76
$IIGLL,5027.776577,N,412.690321,W,123551,A*25
$IIDBT,0000.0,f,3.27333831787109,M,,*76
$IIGLL,5027.776567,N,412.690346,W,123552,A*26
$IIDBT,0000.0,f,3.27333831787109,M,,*76
$IIGLL,5027.776546,N,412.690361,W,123553,A*21
$IIDBT,0000.0,f,3.27333831787109,M,,*76
$IIGLL,5027.776551,N,412.690402,W,123554,A*22
$IIDBT,0000.0,f,3.27333831787109,M,,*76
$IIGLL,5027.776592,N,412.690387,W,123555,A*26
$IIDBT,0000.0,f,3.29705810546875,M,,*77
$IIGLL,5027.776602,N,412.690321,W,123556,A*23
$IIDBT,0000.0,f,3.29705810546875,M,,*77
$IIGLL,5027.776602,N,412.690321,W,123557,A*22
$IIDBT,0000.0,f,3.29705810546875,M,,*77
$IIGLL,5027.776602,N,412.690326,W,123558,A*2a
$IIDBT,0000.0,f,3.27333831787109,M,,*76
$IIGLL,5027.776592,N,412.690361,W,123559,A*22
$IIDBT,0000.0,f,3.27333831787109,M,,*76
$IIGLL,5027.776577,N,412.690382,W,123600,A*2b
$IIDBT,0000.0,f,3.29705810546875,M,,*77
$IIGLL,5027.776551,N,412.690402,W,123601,A*21
$IIDBT,0000.0,f,3.29705810546875,M,,*77
$IIGLL,5027.776531,N,412.690407,W,123602,A*21
$IIDBT,0000.0,f,3.27333831787109,M,,*76
$IIGLL,5027.776511,N,412.690392,W,123603,A*29
$IIDBT,0000.0,f,3.27333831787109,M,,*76
$IIGLL,5027.776486,N,412.690377,W,123604,A*2a
$IIDBT,0000.0,f,3.27333831787109,M,,*76
$IIGLL,5027.776481,N,412.690371,W,123605,A*2a
$IIDBT,0000.0,f,3.29705810546875,M,,*77
$IIGLL,5027.776481,N,412.690377,W,123606,A*2f
$IIDBT,0000.0,f,3.29705810546875,M,,*77
$IIGLL,5027.776511,N,412.690437,W,123607,A*25
$IIDBT,0000.0,f,3.29705810546875,M,,*77
$IIGLL,5027.776521,N,412.690432,W,123608,A*2c
$IIDBT,0000.0,f,3.29705810546875,M,,*77
$IIGLL,5027.776506,N,412.690422,W,123609,A*29
$IIDBT,0000.0,f,3.29705810546875,M,,*77
$IIGLL,5027.776506,N,412.690457,W,123610,A*23
$IIDBT,0000.0,f,3.29705810546875,M,,*77
$IIGLL,5027.776506,N,412.690457,W,123611,A*22
$IIDBT,0000.0,f,3.27333831787109,M,,*76
$IIGLL,5027.776536,N,412.690497,W,123612,A*2e
$IIDBT,0000.0,f,3.27333831787109,M,,*76
$IIGLL,5027.776536,N,412.690497,W,123613,A*2f
$IIDBT,0000.0,f,3.27333831787109,M,,*76
$IIGLL,5027.776521,N,412.690507,W,123614,A*26
$IIDBT,0000.0,f,3.29705810546875,M,,*77
$IIGLL,5027.776521,N,412.690548,W,123615,A*2c
$IIDBT,0000.0,f,3.29705810546875,M,,*77
$IIGLL,5027.776516,N,412.690563,W,123616,A*22
$IIDBT,0000.0,f,3.27333831787109,M,,*76
$IIGLL,5027.776491,N,412.690558,W,123617,A*25
$IIDBT,0000.0,f,3.27333831787109,M,,*76
$IIGLL,5027.776446,N,412.690568,W,123618,A*23
$IIDBT,0000.0,f,3.29705810546875,M,,*77
$IIGLL,5027.776451,N,412.690548,W,123619,A*26
$IIDBT,0000.0,f,3.27333831787109,M,,*76
$IIGLL,5027.776466,N,412.690558,W,123620,A*29
$IIDBT,0000.0,f,3.24961853027344,M,,*7a
$IIGLL,5027.776481,N,412.690548,W,123621,A*20
$IIDBT,0000.0,f,3.24961853027344,M,,*7a
$IIGLL,5027.776506,N,412.690512,W,123622,A*22
$IIDBT,0000.0,f,3.27333831787109,M,,*76
$IIGLL,5027.776511,N,412.690497,W,123623,A*29
$IIDBT,0000.0,f,3.27333831787109,M,,*76
$IIGLL,5027.776506,N,412.690517,W,123624,A*21
$IIDBT,0000.0,f,3.27333831787109,M,,*76
$IIGLL,5027.776506,N,412.690517,W,123625,A*20
$IIDBT,0000.0,f,3.27333831787109,M,,*76
$IIGLL,5027.776471,N,412.690512,W,123626,A*27
$IIDBT,0000.0,f,3.27333831787109,M,,*76
$IIGLL,5027.776456,N,412.690507,W,123627,A*27
$IIDBT,0000.0,f,3.27333831787109,M,,*76
$IIGLL,5027.776466,N,412.690487,W,123628,A*22
$IIDBT,0000.0,f,3.27333831787109,M,,*76
$IIGLL,5027.776486,N,412.690457,W,123629,A*20
$IIDBT,0000.0,f,3.27333831787109,M,,*76
$IIGLL,5027.776486,N,412.690452,W,123630,A*2d
$IIDBT,0000.0,f,3.27333831787109,M,,*76
$IIGLL,5027.776481,N,412.690472,W,123631,A*29
$IIDBT,0000.0,f,3.24961853027344,M,,*7a
$IIGLL,5027.776501,N,412.690472,W,123632,A*23
$IIDBT,0000.0,f,3.27333831787109,M,,*76
$IIGLL,5027.776476,N,412.690442,W,123633,A*20
$IIDBT,0000.0,f,3.27333831787109,M,,*76
$IIGLL,5027.776466,N,412.690417,W,123634,A*26
$IIDBT,0000.0,f,3.27333831787109,M,,*76
$IIGLL,5027.776451,N,412.690412,W,123635,A*26
$IIDBT,0000.0,f,3.24961853027344,M,,*7a
$IIGLL,5027.776416,N,412.690382,W,123636,A*28
$IIDBT,0000.0,f,3.24961853027344,M,,*7a
$IIGLL,5027.776391,N,412.690321,W,123637,A*28
$IIDBT,0000.0,f,3.24961853027344,M,,*7a
$IIGLL,5027.776355,N,412.690301,W,123638,A*2d
$IIDBT,0000.0,f,3.24961853027344,M,,*7a
$IIGLL,5027.776345,N,412.690251,W,123639,A*29
$IIDBT,0000.0,f,3.24961853027344,M,,*7a
$IIGLL,5027.776320,N,412.690251,W,123640,A*24
$IIDBT,0000.0,f,3.24961853027344,M,,*7a
$IIGLL,5027.776345,N,412.690256,W,123641,A*21
$IIDBT,0000.0,f,3.24961853027344,M,,*7a
$IIGLL,5027.776350,N,412.690231,W,123642,A*27
$IIDBT,0000.0,f,3.24961853027344,M,,*7a
$IIGLL,5027.776355,N,412.690226,W,123643,A*25
$IIDBT,0000.0,f,3.24961853027344,M,,*7a
$IIGLL,5027.776320,N,412.690216,W,123644,A*23
$IIDBT,0000.0,f,3.24961853027344,M,,*7a
$IIGLL,5027.776255,N,412.690115,W,123645,A*21
$IIDBT,0000.0,f,3.24961853027344,M,,*7a
$IIGLL,5027.776139,N,412.690035,W,123646,A*28
$IIDBT,0000.0,f,3.27333831787109,M,,*76
$IIGLL,5027.776139,N,412.690035,W,123647,A*29
$IIDBT,0000.0,f,3.27333831787109,M,,*76
$IIGLL,5027.776124,N,412.690075,W,123648,A*2e
$IIDBT,0000.0,f,3.24961853027344,M,,*7a
$IIGLL,5027.776124,N,412.690070,W,123649,A*2a
$IIDBT,0000.0,f,3.27333831787109,M,,*76
$IIGLL,5027.776094,N,412.689999,W,123650,A*2e
$IIDBT,0000.0,f,3.27333831787109,M,,*76
$IIGLL,5027.776038,N,412.689924,W,123651,A*2f
$IIDBT,0000.0,f,3.27333831787109,M,,*76
$IIGLL,5027.776003,N,412.689859,W,123652,A*2f
$IIDBT,0000.0,f,3.24961853027344,M,,*7a
$IIGLL,5027.775993,N,412.689853,W,123653,A*27
$IIDBT,0000.0,f,3.27333831787109,M,,*76
$IIGLL,5027.775988,N,412.689859,W,123654,A*20
$IIDBT,0000.0,f,3.27333831787109,M,,*76
$IIGLL,5027.775973,N,412.689874,W,123655,A*2a
$IIDBT,0000.0,f,3.24961853027344,M,,*7a
$IIGLL,5027.775913,N,412.689813,W,123656,A*2e
$IIDBT,0000.0,f,3.24961853027344,M,,*7a
$IIGLL,5027.775822,N,412.689708,W,123657,A*29
$IIDBT,0000.0,f,3.24961853027344,M,,*7a
$IIGLL,5027.775576,N,412.689396,W,123658,A*29
$IIDBT,0000.0,f,3.24961853027344,M,,*7a
$IIGLL,5027.775354,N,412.689255,W,123659,A*20
$IIDBT,0000.0,f,3.24961853027344,M,,*7a
$IIGLL,5027.775043,N,412.688943,W,123700,A*25
$IIDBT,0000.0,f,3.24961853027344,M,,*7a
$IIGLL,5027.774821,N,412.688853,W,123701,A*29
$IIDBT,0000.0,f,3.24961853027344,M,,*7a
$IIGLL,5027.774329,N,412.688611,W,123702,A*21
$IIDBT,0000.0,f,3.24961853027344,M,,*7a
$IIGLL,5027.773931,N,412.688234,W,123703,A*27
$IIDBT,0000.0,f,3.24961853027344,M,,*7a
$IIGLL,5027.773423,N,412.687902,W,123704,A*2f
$IIDBT,0000.0,f,3.24961853027344,M,,*7a
$IIGLL,5027.772986,N,412.687646,W,123705,A*22
$IIDBT,0000.0,f,3.24961853027344,M,,*7a
$IIGLL,5027.772719,N,412.687399,W,123706,A*2e
$IIDBT,0000.0,f,3.24961853027344,M,,*7a
$IIGLL,5027.772257,N,412.687077,W,123707,A*23
$IIDBT,0000.0,f,3.24961853027344,M,,*7a
$IIGLL,5027.771784,N,412.686625,W,123708,A*24
$IIDBT,0000.0,f,3.24961853027344,M,,*7a
$IIGLL,5027.771321,N,412.686253,W,123709,A*2b
$IIDBT,0000.0,f,3.24961853027344,M,,*7a
$IIGLL,5027.770879,N,412.685926,W,123710,A*2e
$IIDBT,0000.0,f,3.24961853027344,M,,*7a
$IIGLL,5027.770461,N,412.685679,W,123711,A*2f
$IIDBT,0000.0,f,3.24961853027344,M,,*7a
$IIGLL,5027.770034,N,412.685307,W,123712,A*24
$IIDBT,0000.0,f,3.24961853027344,M,,*7a
$IIGLL,5027.769772,N,412.685026,W,123713,A*28
$IIDBT,0000.0,f,3.24961853027344,M,,*7a
$IIGLL,5027.769360,N,412.684653,W,123714,A*2d
$IIDBT,0000.0,f,3.27333831787109,M,,*76
$IIGLL,5027.769078,N,412.684326,W,123715,A*21
$IIDBT,0000.0,f,3.27333831787109,M,,*76
$IIGLL,5027.768781,N,412.684060,W,123716,A*23
$IIDBT,0000.0,f,3.27333831787109,M,,*76
$IIGLL,5027.768545,N,412.683824,W,123717,A*27
$IIDBT,0000.0,f,3.27333831787109,M,,*76
$IIGLL,5027.768238,N,412.683678,W,123718,A*22
$IIDBT,0000.0,f,3.27333831787109,M,,*76
$IIGLL,5027.767992,N,412.683451,W,123719,A*2e
$IIDBT,0000.0,f,3.27333831787109,M,,*76
$IIGLL,5027.767967,N,412.683451,W,123720,A*2e
$IIDBT,0000.0,f,3.27333831787109,M,,*76
$IIGLL,5027.767926,N,412.683451,W,123721,A*2a
$IIDBT,0000.0,f,3.27333831787109,M,,*76
$IIGLL,5027.767896,N,412.683321,W,123722,A*23
$IIDBT,0000.0,f,3.27333831787109,M,,*76
$IIGLL,5027.767846,N,412.683361,W,123723,A*2b
$IIDBT,0000.0,f,3.27333831787109,M,,*76
$IIGLL,5027.767786,N,412.683316,W,123724,A*2f
$IIDBT,0000.0,f,3.27333831787109,M,,*76
$IIGLL,5027.767745,N,412.683331,W,123725,A*24
$IIDBT,0000.0,f,3.27333831787109,M,,*76
$IIGLL,5027.767771,N,412.683326,W,123726,A*26
$IIDBT,0000.0,f,3.27333831787109,M,,*76
$IIGLL,5027.767841,N,412.683502,W,123727,A*2b
$IIDBT,0000.0,f,3.24961853027344,M,,*7a
$IIGLL,5027.767906,N,412.683859,W,123728,A*25
$IIDBT,0000.0,f,3.27333831787109,M,,*76
$IIGLL,5027.768067,N,412.684271,W,123729,A*22
$IIDBT,0000.0,f,3.27333831787109,M,,*76
$IIGLL,5027.768193,N,412.684573,W,123730,A*25
$IIDBT,0000.0,f,3.29705810546875,M,,*77
$IIGLL,5027.768510,N,412.684980,W,123731,A*2b
$IIDBT,0000.0,f,3.29705810546875,M,,*77
$IIGLL,5027.768802,N,412.685136,W,123732,A*22
$IIDBT,0000.0,f,3.29705810546875,M,,*77
$IIGLL,5027.769199,N,412.685101,W,123733,A*2d
$IIDBT,0000.0,f,3.29705810546875,M,,*77
$IIGLL,5027.769646,N,412.684900,W,123734,A*27
$IIDBT,0000.0,f,3.27333831787109,M,,*76
$IIGLL,5027.770089,N,412.684558,W,123735,A*2a
$IIDBT,0000.0,f,3.24961853027344,M,,*7a
$IIGLL,5027.770456,N,412.684221,W,123736,A*26
$IIDBT,0000.0,f,3.24961853027344,M,,*7a
$IIGLL,5027.770874,N,412.683718,W,123737,A*23
$IIDBT,0000.0,f,3.24961853027344,M,,*7a
$IIGLL,5027.771261,N,412.683361,W,123738,A*29
$IIDBT,0000.0,f,3.24961853027344,M,,*7a
$IIGLL,5027.771713,N,412.683059,W,123739,A*20
$IIDBT,0000.0,f,3.24961853027344,M,,*7a
$IIGLL,5027.772121,N,412.682868,W,123740,A*21
$IIDBT,0000.0,f,3.24961853027344,M,,*7a
$IIGLL,5027.772458,N,412.682647,W,123741,A*28
$IIDBT,0000.0,f,3.24961853027344,M,,*7a
$IIGLL,5027.772900,N,412.682420,W,123742,A*28
$IIDBT,0000.0,f,3.24961853027344,M,,*7a
$IIGLL,5027.773257,N,412.682310,W,123743,A*25
$IIDBT,0000.0,f,3.24961853027344,M,,*7a
$IIGLL,5027.773529,N,412.682189,W,123744,A*2e
$IIDBT,0000.0,f,3.24961853027344,M,,*7a
$IIGLL,5027.773836,N,412.682003,W,123745,A*2f
$IIDBT,0000.0,f,3.22589874267578,M,,*7c
$IIGLL,5027.774117,N,412.681867,W,123746,A*28
$IIDBT,0000.0,f,3.22589874267578,M,,*7c
$IIGLL,5027.774419,N,412.681676,W,123747,A*2c
$IIDBT,0000.0,f,3.22589874267578,M,,*7c
$IIGLL,5027.774857,N,412.681379,W,123748,A*2f
$IIDBT,0000.0,f,3.17845916748047,M,,*73
$IIGLL,5027.775143,N,412.681203,W,123749,A*2f
$IIDBT,0000.0,f,3.20217895507813,M,,*70
$IIGLL,5027.775465,N,412.680972,W,123750,A*2a
$IIDBT,0000.0,f,3.20217895507813,M,,*70
$IIGLL,5027.775691,N,412.680695,W,123751,A*24
$IIDBT,0000.0,f,3.17845916748047,M,,*73
$IIGLL,5027.775948,N,412.680439,W,123752,A*28
$IIDBT,0000.0,f,3.17845916748047,M,,*73
$IIGLL,5027.776285,N,412.680062,W,123753,A*2a
$IIDBT,0000.0,f,3.15473937988281,M,,*71
$IIGLL,5027.776516,N,412.679745,W,123754,A*24
$IIDBT,0000.0,f,3.17845916748047,M,,*73
$IIGLL,5027.776833,N,412.679338,W,123755,A*21
$IIDBT,0000.0,f,3.15473937988281,M,,*71
$IIGLL,5027.777135,N,412.678940,W,123756,A*28
$IIDBT,0000.0,f,3.15473937988281,M,,*71
$IIGLL,5027.777421,N,412.678714,W,123757,A*26
$IIDBT,0000.0,f,3.13101959228516,M,,*77
$IIGLL,5027.777698,N,412.678447,W,123758,A*2c
$IIDBT,0000.0,f,3.13101959228516,M,,*77
$IIGLL,5027.777914,N,412.678312,W,123759,A*21
$IIDBT,0000.0,f,3.13101959228516,M,,*77
$IIGLL,5027.778131,N,412.678256,W,123800,A*23
$IIDBT,0000.0,f,3.13101959228516,M,,*77
$IIGLL,5027.778317,N,412.678281,W,123801,A*2e
$IIDBT,0000.0,f,3.13101959228516,M,,*77
$IIGLL,5027.778613,N,412.678553,W,123802,A*24
$IIDBT,0000.0,f,3.1072998046875,M,,*4e
$IIGLL,5027.778789,N,412.678598,W,123803,A*20
$IIDBT,0000.0,f,3.1072998046875,M,,*4e
$IIGLL,5027.778991,N,412.678759,W,123804,A*2f
$IIDBT,0000.0,f,3.1072998046875,M,,*4e
$IIGLL,5027.779157,N,412.679026,W,123805,A*23
$IIDBT,0000.0,f,3.1072998046875,M,,*4e
$IIGLL,5027.779297,N,412.679322,W,123806,A*28
$IIDBT,0000.0,f,3.1072998046875,M,,*4e
$IIGLL,5027.779438,N,412.679680,W,123807,A*27
$IIDBT,0000.0,f,3.1072998046875,M,,*4e
$IIGLL,5027.779609,N,412.680042,W,123808,A*26
$IIDBT,0000.0,f,3.1072998046875,M,,*4e
$IIGLL,5027.779765,N,412.680369,W,123809,A*26
$IIDBT,0000.0,f,3.1072998046875,M,,*4e
$IIGLL,5027.779861,N,412.680756,W,123810,A*2d
$IIDBT,0000.0,f,3.1072998046875,M,,*4e
$IIGLL,5027.779921,N,412.681118,W,123811,A*24
$IIDBT,0000.0,f,3.1072998046875,M,,*4e
$IIGLL,5027.780052,N,412.681701,W,123812,A*22
$IIDBT,0000.0,f,3.1072998046875,M,,*4e
$IIGLL,5027.780112,N,412.682109,W,123813,A*2b
$IIDBT,0000.0,f,3.08358001708984,M,,*77
$IIGLL,5027.780198,N,412.682521,W,123814,A*20
$IIDBT,0000.0,f,3.1072998046875,M,,*4e
$IIGLL,5027.780303,N,412.683109,W,123815,A*2e
$IIDBT,0000.0,f,3.1072998046875,M,,*4e
$IIGLL,5027.780353,N,412.683688,W,123816,A*26
$IIDBT,0000.0,f,3.1072998046875,M,,*4e
$IIGLL,5027.780434,N,412.684266,W,123817,A*22
$IIDBT,0000.0,f,3.1072998046875,M,,*4e
$IIGLL,5027.780519,N,412.684689,W,123818,A*26
$IIDBT,0000.0,f,3.1072998046875,M,,*4e
$IIGLL,5027.780605,N,412.685036,W,123819,A*2a
$IIDBT,0000.0,f,3.1072998046875,M,,*4e
$IIGLL,5027.780731,N,412.685357,W,123820,A*22
$IIDBT,0000.0,f,3.1072998046875,M,,*4e
$IIGLL,5027.780866,N,412.685619,W,123821,A*21
$IIDBT,0000.0,f,3.08358001708984,M,,*77
$IIGLL,5027.780977,N,412.685810,W,123822,A*24
$IIDBT,0000.0,f,3.1072998046875,M,,*4e
$IIGLL,5027.781098,N,412.686072,W,123823,A*23
$IIDBT,0000.0,f,3.08358001708984,M,,*77
$IIGLL,5027.781213,N,412.686434,W,123824,A*23
$IIDBT,0000.0,f,3.05986022949219,M,,*76
$IIGLL,5027.781369,N,412.686766,W,123825,A*2a
$IIDBT,0000.0,f,3.05986022949219,M,,*76
$IIGLL,5027.781616,N,412.687178,W,123826,A*2c
$IIDBT,0000.0,f,3.05986022949219,M,,*76
$IIGLL,5027.781711,N,412.687294,W,123827,A*2a
$IIDBT,0000.0,f,3.05986022949219,M,,*76
$IIGLL,5027.781897,N,412.687565,W,123828,A*2d
$IIDBT,0000.0,f,3.05986022949219,M,,*76
$IIGLL,5027.782164,N,412.687837,W,123829,A*20
$IIDBT,0000.0,f,3.05986022949219,M,,*76
$IIGLL,5027.782390,N,412.687892,W,123830,A*2e
$IIDBT,0000.0,f,3.08358001708984,M,,*77
$IIGLL,5027.782576,N,412.688118,W,123831,A*25
$IIDBT,0000.0,f,3.08358001708984,M,,*77
$IIGLL,5027.782818,N,412.688360,W,123832,A*2e
$IIDBT,0000.0,f,3.03614044189453,M,,*78
$IIGLL,5027.783034,N,412.688707,W,123833,A*2d
$IIDBT,0000.0,f,3.01242065429688,M,,*75
$IIGLL,5027.783180,N,412.689004,W,123834,A*21
$IIDBT,0000.0,f,3.01242065429688,M,,*75
$IIGLL,5027.783205,N,412.689461,W,123835,A*29
$IIDBT,0000.0,f,3.03614044189453,M,,*78
$IIGLL,5027.783341,N,412.690170,W,123836,A*26
$IIDBT,0000.0,f,3.05986022949219,M,,*76
$IIGLL,5027.783391,N,412.690829,W,123837,A*2f
$IIDBT,0000.0,f,3.05986022949219,M,,*76
$IIGLL,5027.783401,N,412.691402,W,123838,A*2a
$IIDBT,0000.0,f,3.08358001708984,M,,*77
$IIGLL,5027.783492,N,412.692132,W,123839,A*24
$IIDBT,0000.0,f,3.15473937988281,M,,*71
$IIGLL,5027.783512,N,412.692584,W,123840,A*2a
$IIDBT,0000.0,f,3.17845916748047,M,,*73
$IIGLL,5027.783607,N,412.693746,W,123841,A*21
$IIDBT,0000.0,f,3.17845916748047,M,,*73
$IIGLL,5027.783567,N,412.694737,W,123842,A*26
$IIDBT,0000.0,f,3.17845916748047,M,,*73
$IIGLL,5027.783537,N,412.695637,W,123843,A*22
$IIDBT,0000.0,f,3.20217895507813,M,,*70
$IIGLL,5027.783502,N,412.696598,W,123844,A*26
$IIDBT,0000.0,f,3.17845916748047,M,,*73
$IIGLL,5027.783366,N,412.697412,W,123845,A*21
$IIDBT,0000.0,f,3.17845916748047,M,,*73
$IIGLL,5027.783140,N,412.698302,W,123846,A*2d
$IIDBT,0000.0,f,3.15473937988281,M,,*71
$IIGLL,5027.782687,N,412.699308,W,123847,A*2a
$IIDBT,0000.0,f,3.15473937988281,M,,*71
$IIGLL,5027.782194,N,412.699952,W,123848,A*25
$IIDBT,0000.0,f,3.15473937988281,M,,*71
$IIGLL,5027.781349,N,412.700631,W,123849,A*2e
$IIDBT,0000.0,f,3.17845916748047,M,,*73
$IIGLL,5027.780509,N,412.701204,W,123850,A*26
$IIDBT,0000.0,f,3.17845916748047,M,,*73
$IIGLL,5027.779755,N,412.701612,W,123851,A*29
$IIDBT,0000.0,f,3.20217895507813,M,,*70
$IIGLL,5027.778835,N,412.702326,W,123852,A*23
$IIDBT,0000.0,f,3.17845916748047,M,,*73
$IIGLL,5027.777990,N,412.702969,W,123853,A*22
$IIDBT,0000.0,f,3.17845916748047,M,,*73
$IIGLL,5027.777150,N,412.703709,W,123854,A*28
$IIDBT,0000.0,f,3.20217895507813,M,,*70
$IIGLL,5027.776345,N,412.704483,W,123855,A*28
$IIDBT,0000.0,f,3.20217895507813,M,,*70
$IIGLL,5027.775460,N,412.705383,W,123856,A*2e
$IIDBT,0000.0,f,3.22589874267578,M,,*7c
$IIGLL,5027.774796,N,412.706183,W,123857,A*25
$IIDBT,0000.0,f,3.20217895507813,M,,*70
$IIGLL,5027.773982,N,412.707124,W,123858,A*2a
$IIDBT,0000.0,f,3.22589874267578,M,,*7c
$IIGLL,5027.773207,N,412.708165,W,123859,A*27
$IIDBT,0000.0,f,3.22589874267578,M,,*7c
$IIGLL,5027.772498,N,412.709050,W,123900,A*2d
$IIDBT,0000.0,f,3.22589874267578,M,,*7c
$IIGLL,5027.771603,N,412.710267,W,123901,A*21
$IIDBT,0000.0,f,3.22589874267578,M,,*7c
$IIGLL,5027.770974,N,412.711413,W,123902,A*28
$IIDBT,0000.0,f,3.20217895507813,M,,*70
$IIGLL,5027.770361,N,412.712781,W,123903,A*2c
$IIDBT,0000.0,f,3.22589874267578,M,,*7c
$IIGLL,5027.769792,N,412.713782,W,123904,A*29
$IIDBT,0000.0,f,3.22589874267578,M,,*7c
$IIGLL,5027.769118,N,412.715004,W,123905,A*23
$IIDBT,0000.0,f,3.22589874267578,M,,*7c
$IIGLL,5027.768610,N,412.715889,W,123906,A*23
$IIDBT,0000.0,f,3.24961853027344,M,,*7a
$IIGLL,5027.767871,N,412.717122,W,123907,A*2e
$IIDBT,0000.0,f,3.24961853027344,M,,*7a
$IIGLL,5027.767288,N,412.718283,W,123908,A*2a
$IIDBT,0000.0,f,3.24961853027344,M,,*7a
$IIGLL,5027.766669,N,412.719455,W,123909,A*2d
$IIDBT,0000.0,f,3.24961853027344,M,,*7a
$IIGLL,5027.766096,N,412.720582,W,123910,A*22
$IIDBT,0000.0,f,3.24961853027344,M,,*7a
$IIGLL,5027.765427,N,412.721809,W,123911,A*21
$IIDBT,0000.0,f,3.22589874267578,M,,*7c
$IIGLL,5027.764854,N,412.722996,W,123912,A*2f
$IIDBT,0000.0,f,3.17845916748047,M,,*73
$IIGLL,5027.764265,N,412.724127,W,123913,A*22
$IIDBT,0000.0,f,3.15473937988281,M,,*71
$IIGLL,5027.763707,N,412.725359,W,123914,A*29
$IIDBT,0000.0,f,3.13101959228516,M,,*77
$IIGLL,5027.763134,N,412.726441,W,123915,A*23
$IIDBT,0000.0,f,3.1072998046875,M,,*4e
$IIGLL,5027.762591,N,412.727698,W,123916,A*2d
$IIDBT,0000.0,f,3.08358001708984,M,,*77
$IIGLL,5027.762078,N,412.728849,W,123917,A*23
$IIDBT,0000.0,f,3.05986022949219,M,,*76
$IIGLL,5027.761414,N,412.730328,W,123918,A*24
$IIDBT,0000.0,f,3.05986022949219,M,,*76
$IIGLL,5027.760911,N,412.731409,W,123919,A*29
$IIDBT,0000.0,f,3.03614044189453,M,,*78
$IIGLL,5027.760312,N,412.732858,W,123920,A*21
$IIDBT,0000.0,f,3.03614044189453,M,,*78
$IIGLL,5027.759870,N,412.733914,W,123921,A*2d
$IIDBT,0000.0,f,2.98870086669922,M,,*7b
$IIGLL,5027.759347,N,412.735126,W,123922,A*2e
$IIDBT,0000.0,f,2.96498107910156,M,,*7d
$IIGLL,5027.758794,N,412.736534,W,123923,A*20
$IIDBT,0000.0,f,2.94126129150391,M,,*76
$IIGLL,5027.758301,N,412.737706,W,123924,A*2d
$IIDBT,0000.0,f,2.89381790161133,M,,*79
$IIGLL,5027.757717,N,412.739074,W,123925,A*2c
$IIDBT,0000.0,f,2.89381790161133,M,,*79
$IIGLL,5027.757240,N,412.740210,W,123926,A*26
$IIDBT,0000.0,f,2.89381790161133,M,,*79
$IIGLL,5027.756782,N,412.741422,W,123927,A*2b
$IIDBT,0000.0,f,2.87009811401367,M,,*72
$IIGLL,5027.756329,N,412.742353,W,123928,A*23
$IIDBT,0000.0,f,2.87009811401367,M,,*72
$IIGLL,5027.755882,N,412.743439,W,123929,A*21
$IIDBT,0000.0,f,2.82266235351563,M,,*70
$IIGLL,5027.755188,N,412.744304,W,123930,A*24
$IIDBT,0000.0,f,2.79894256591797,M,,*75
$IIGLL,5027.754499,N,412.744983,W,123931,A*24
$IIDBT,0000.0,f,2.79894256591797,M,,*75
$IIGLL,5027.753825,N,412.745551,W,123932,A*29
$IIDBT,0000.0,f,2.77522277832031,M,,*77
$IIGLL,5027.752884,N,412.746260,W,123933,A*24
$IIDBT,0000.0,f,2.79894256591797,M,,*75
$IIGLL,5027.751889,N,412.746638,W,123934,A*24
$IIDBT,0000.0,f,2.77522277832031,M,,*77
$IIGLL,5027.750737,N,412.746980,W,123935,A*22
$IIDBT,0000.0,f,2.77522277832031,M,,*77
$IIGLL,5027.749666,N,412.747176,W,123936,A*2c
$IIDBT,0000.0,f,2.75150299072266,M,,*78
$IIGLL,5027.748594,N,412.747352,W,123937,A*26
$IIDBT,0000.0,f,2.75150299072266,M,,*78
$IIGLL,5027.747533,N,412.747447,W,123938,A*28
$IIDBT,0000.0,f,2.75150299072266,M,,*78
$IIGLL,5027.746311,N,412.747472,W,123939,A*28
$IIDBT,0000.0,f,2.75150299072266,M,,*78
$IIGLL,5027.745361,N,412.747271,W,123940,A*27
$IIDBT,0000.0,f,2.75150299072266,M,,*78
$IIGLL,5027.744289,N,412.746894,W,123941,A*20
$IIDBT,0000.0,f,2.727783203125,M,,*72
$IIGLL,5027.743253,N,412.746396,W,123942,A*2a
$IIDBT,0000.0,f,2.727783203125,M,,*72
$IIGLL,5027.742439,N,412.746009,W,123943,A*25
$IIDBT,0000.0,f,2.727783203125,M,,*72
$IIGLL,5027.741534,N,412.745375,W,123944,A*26
$IIDBT,0000.0,f,2.75150299072266,M,,*78
$IIGLL,5027.740608,N,412.744731,W,123945,A*2f
$IIDBT,0000.0,f,2.77522277832031,M,,*77
$IIGLL,5027.739778,N,412.744213,W,123946,A*21
$IIDBT,0000.0,f,2.79894256591797,M,,*75
$IIGLL,5027.738722,N,412.743620,W,123947,A*2d
$IIDBT,0000.0,f,2.79894256591797,M,,*75
$IIGLL,5027.737757,N,412.743122,W,123948,A*2a
$IIDBT,0000.0,f,2.79894256591797,M,,*75
$IIGLL,5027.736902,N,412.742383,W,123949,A*2c
$IIDBT,0000.0,f,2.77522277832031,M,,*77
$IIGLL,5027.735836,N,412.741754,W,123950,A*2c
$IIDBT,0000.0,f,2.75150299072266,M,,*78
$IIGLL,5027.734870,N,412.741040,W,123951,A*2c
$IIDBT,0000.0,f,2.77522277832031,M,,*77
$IIGLL,5027.733924,N,412.740411,W,123952,A*29
$IIDBT,0000.0,f,2.77522277832031,M,,*77
$IIGLL,5027.733004,N,412.739712,W,123953,A*2d
$IIDBT,0000.0,f,2.77522277832031,M,,*77
$IIGLL,5027.732033,N,412.739044,W,123954,A*2b
$IIDBT,0000.0,f,2.77522277832031,M,,*77
$IIGLL,5027.730887,N,412.738163,W,123955,A*2a
$IIDBT,0000.0,f,2.75150299072266,M,,*78
$IIGLL,5027.729806,N,412.737324,W,123956,A*26
$IIDBT,0000.0,f,2.77522277832031,M,,*77
$IIGLL,5027.728689,N,412.736539,W,123957,A*24
$IIDBT,0000.0,f,2.75150299072266,M,,*78
$IIGLL,5027.727799,N,412.735689,W,123958,A*2f
$IIDBT,0000.0,f,2.75150299072266,M,,*78
$IIGLL,5027.726693,N,412.734703,W,123959,A*26
$IIDBT,0000.0,f,2.75150299072266,M,,*78
$IIGLL,5027.725531,N,412.733899,W,124000,A*27
$IIDBT,0000.0,f,2.75150299072266,M,,*78
$IIGLL,5027.724540,N,412.733109,W,124001,A*21
$IIDBT,0000.0,f,2.727783203125,M,,*72
$IIGLL,5027.723454,N,412.732098,W,124002,A*29
$IIDBT,0000.0,f,2.727783203125,M,,*72
$IIGLL,5027.722317,N,412.731163,W,124003,A*2f
$IIDBT,0000.0,f,2.727783203125,M,,*72
$IIGLL,5027.721120,N,412.730217,W,124004,A*2c
$IIDBT,0000.0,f,2.727783203125,M,,*72
$IIGLL,5027.719883,N,412.729362,W,124005,A*2d
$IIDBT,0000.0,f,2.727783203125,M,,*72
$IIGLL,5027.718656,N,412.728513,W,124006,A*28
$IIDBT,0000.0,f,2.70406341552734,M,,*7a
$IIGLL,5027.717489,N,412.727627,W,124007,A*2d
$IIDBT,0000.0,f,2.75150299072266,M,,*78
$IIGLL,5027.716378,N,412.726964,W,124008,A*23
$IIDBT,0000.0,f,2.75150299072266,M,,*78
$IIGLL,5027.715131,N,412.726144,W,124009,A*24
$IIDBT,0000.0,f,2.727783203125,M,,*72
$IIGLL,5027.714004,N,412.725374,W,124010,A*28
$IIDBT,0000.0,f,2.727783203125,M,,*72
$IIGLL,5027.712696,N,412.724409,W,124011,A*2e
$IIDBT,0000.0,f,2.727783203125,M,,*72
$IIGLL,5027.711419,N,412.723378,W,124012,A*2d
$IIDBT,0000.0,f,2.75150299072266,M,,*78
$IIGLL,5027.710172,N,412.722367,W,124013,A*2a
$IIDBT,0000.0,f,2.727783203125,M,,*72
$IIGLL,5027.709040,N,412.721482,W,124014,A*2a
$IIDBT,0000.0,f,2.727783203125,M,,*72
$IIGLL,5027.707848,N,412.720461,W,124015,A*29
$IIDBT,0000.0,f,2.727783203125,M,,*72
$IIGLL,5027.706762,N,412.719606,W,124016,A*25
$IIDBT,0000.0,f,2.75150299072266,M,,*78
$IIGLL,5027.705520,N,412.718570,W,124017,A*20
$IIDBT,0000.0,f,2.75150299072266,M,,*78
$IIGLL,5027.704227,N,412.717569,W,124018,A*29
$IIDBT,0000.0,f,2.75150299072266,M,,*78
$IIGLL,5027.702965,N,412.716478,W,124019,A*23
$IIDBT,0000.0,f,2.75150299072266,M,,*78
$IIGLL,5027.701542,N,412.715412,W,124020,A*2c
$IIDBT,0000.0,f,2.77522277832031,M,,*77
$IIGLL,5027.700144,N,412.714451,W,124021,A*28
$IIDBT,0000.0,f,2.77522277832031,M,,*77
$IIGLL,5027.698841,N,412.713380,W,124022,A*2b
$IIDBT,0000.0,f,2.77522277832031,M,,*77
$IIGLL,5027.697534,N,412.712349,W,124023,A*2e
$IIDBT,0000.0,f,2.77522277832031,M,,*77
$IIGLL,5027.696332,N,412.711303,W,124024,A*25
$IIDBT,0000.0,f,2.79894256591797,M,,*75
$IIGLL,5027.694974,N,412.710232,W,124025,A*2c
$IIDBT,0000.0,f,2.79894256591797,M,,*75
$IIGLL,5027.693641,N,412.709216,W,124026,A*2f
$IIDBT,0000.0,f,2.79894256591797,M,,*75
$IIGLL,5027.692208,N,412.708004,W,124027,A*26
$IIDBT,0000.0,f,2.79894256591797,M,,*75
$IIGLL,5027.690950,N,412.706907,W,124028,A*29
$IIDBT,0000.0,f,2.79894256591797,M,,*75
$IIGLL,5027.689618,N,412.705861,W,124029,A*21
$IIDBT,0000.0,f,2.79894256591797,M,,*75
$IIGLL,5027.688375,N,412.704785,W,124030,A*22
$IIDBT,0000.0,f,2.77522277832031,M,,*77
$IIGLL,5027.687103,N,412.703910,W,124031,A*2a
$IIDBT,0000.0,f,2.77522277832031,M,,*77
$IIGLL,5027.685785,N,412.702944,W,124032,A*23
$IIDBT,0000.0,f,2.77522277832031,M,,*77
$IIGLL,5027.684473,N,412.701923,W,124033,A*2b
$IIDBT,0000.0,f,2.79894256591797,M,,*75
$IIGLL,5027.682869,N,412.700762,W,124034,A*27
$IIDBT,0000.0,f,2.79894256591797,M,,*75
$IIGLL,5027.681506,N,412.699781,W,124035,A*2d
$IIDBT,0000.0,f,2.79894256591797,M,,*75
$IIGLL,5027.680274,N,412.698856,W,124036,A*29
$IIDBT,0000.0,f,2.79894256591797,M,,*75
$IIGLL,5027.678795,N,412.697624,W,124037,A*21
$IIDBT,0000.0,f,2.79894256591797,M,,*75
$IIGLL,5027.677487,N,412.696653,W,124038,A*20
$IIDBT,0000.0,f,2.79894256591797,M,,*75
$IIGLL,5027.676371,N,412.695753,W,124039,A*2c
$IIDBT,0000.0,f,2.79894256591797,M,,*75
$IIGLL,5027.674817,N,412.694480,W,124040,A*27
$IIDBT,0000.0,f,2.79894256591797,M,,*75
$IIGLL,5027.673343,N,412.693278,W,124041,A*2d
$IIDBT,0000.0,f,2.79894256591797,M,,*75
$IIGLL,5027.671965,N,412.692298,W,124042,A*2d
$IIDBT,0000.0,f,2.79894256591797,M,,*75
$IIGLL,5027.670648,N,412.691282,W,124043,A*25
$IIDBT,0000.0,f,2.79894256591797,M,,*75
$IIGLL,5027.669189,N,412.689959,W,124044,A*24
$IIDBT,0000.0,f,2.79894256591797,M,,*75
$IIGLL,5027.667877,N,412.688858,W,124045,A*22
$IIDBT,0000.0,f,2.79894256591797,M,,*75
$IIGLL,5027.666660,N,412.687947,W,124046,A*28
$IIDBT,0000.0,f,2.79894256591797,M,,*75
$IIGLL,5027.665302,N,412.686891,W,124047,A*20
$IIDBT,0000.0,f,2.79894256591797,M,,*75
$IIGLL,5027.663994,N,412.685911,W,124048,A*26
$IIDBT,0000.0,f,2.79894256591797,M,,*75
$IIGLL,5027.662531,N,412.684799,W,124049,A*2a
$IIDBT,0000.0,f,2.79894256591797,M,,*75
$IIGLL,5027.660962,N,412.683612,W,124050,A*2f
$IIDBT,0000.0,f,2.79894256591797,M,,*75
$IIGLL,5027.659559,N,412.682556,W,124051,A*22
$IIDBT,0000.0,f,2.79894256591797,M,,*75
$IIGLL,5027.658251,N,412.681254,W,124052,A*29
$IIDBT,0000.0,f,2.79894256591797,M,,*75
$IIGLL,5027.656948,N,412.680223,W,124053,A*24
$IIDBT,0000.0,f,2.82266235351563,M,,*70
$IIGLL,5027.655575,N,412.679121,W,124054,A*25
$IIDBT,0000.0,f,2.82266235351563,M,,*70
$IIGLL,5027.654207,N,412.678040,W,124055,A*20
$IIDBT,0000.0,f,2.84637832641602,M,,*7b
$IIGLL,5027.652689,N,412.676863,W,124056,A*20
$IIDBT,0000.0,f,2.82266235351563,M,,*70
$IIGLL,5027.651336,N,412.675737,W,124057,A*2e
$IIDBT,0000.0,f,2.79894256591797,M,,*75
$IIGLL,5027.650094,N,412.674746,W,124058,A*2c
$IIDBT,0000.0,f,2.82266235351563,M,,*70
$IIGLL,5027.648655,N,412.673589,W,124059,A*29
$IIDBT,0000.0,f,2.82266235351563,M,,*70
$IIGLL,5027.647282,N,412.672392,W,124100,A*28
$IIDBT,0000.0,f,2.82266235351563,M,,*70
$IIGLL,5027.646221,N,412.671351,W,124101,A*2d
$IIDBT,0000.0,f,2.79894256591797,M,,*75
$IIGLL,5027.644873,N,412.670003,W,124102,A*24
$IIDBT,0000.0,f,2.79894256591797,M,,*75
$IIGLL,5027.643505,N,412.668711,W,124103,A*23
$IIDBT,0000.0,f,2.79894256591797,M,,*75
$IIGLL,5027.642037,N,412.667268,W,124104,A*25
$IIDBT,0000.0,f,2.79894256591797,M,,*75
$IIGLL,5027.640714,N,412.666046,W,124105,A*2f
$IIDBT,0000.0,f,2.82266235351563,M,,*70
$IIGLL,5027.639377,N,412.664869,W,124106,A*24
$IIDBT,0000.0,f,2.82266235351563,M,,*70
$IIGLL,5027.638049,N,412.663657,W,124107,A*2e
$IIDBT,0000.0,f,2.84637832641602,M,,*7b
$IIGLL,5027.636761,N,412.662339,W,124108,A*2e
$IIDBT,0000.0,f,2.84637832641602,M,,*7b
$IIGLL,5027.635469,N,412.661072,W,124109,A*28
$IIDBT,0000.0,f,2.84637832641602,M,,*7b
$IIGLL,5027.634181,N,412.659895,W,124110,A*28
$IIDBT,0000.0,f,2.87009811401367,M,,*72
$IIGLL,5027.632783,N,412.658557,W,124111,A*29
$IIDBT,0000.0,f,2.87009811401367,M,,*72
$IIGLL,5027.631420,N,412.657194,W,124112,A*27
$IIDBT,0000.0,f,2.87009811401367,M,,*72
$IIGLL,5027.630299,N,412.656012,W,124113,A*2d
$IIDBT,0000.0,f,2.87009811401367,M,,*72
$IIGLL,5027.628911,N,412.654609,W,124114,A*26
$IIDBT,0000.0,f,2.87009811401367,M,,*72
$IIGLL,5027.627543,N,412.653432,W,124115,A*2e
$IIDBT,0000.0,f,2.87009811401367,M,,*72
$IIGLL,5027.626421,N,412.652296,W,124116,A*20
$IIDBT,0000.0,f,2.87009811401367,M,,*72
$IIGLL,5027.625144,N,412.650998,W,124117,A*23
$IIDBT,0000.0,f,2.84637832641602,M,,*7b
$IIGLL,5027.623821,N,412.649756,W,124118,A*24
$IIDBT,0000.0,f,2.84637832641602,M,,*7b
$IIGLL,5027.622288,N,412.648268,W,124119,A*24
$IIDBT,0000.0,f,2.87009811401367,M,,*72
$IIGLL,5027.620925,N,412.647045,W,124120,A*22
$IIDBT,0000.0,f,2.87009811401367,M,,*72
$IIGLL,5027.619582,N,412.645723,W,124121,A*2d
$IIDBT,0000.0,f,2.87009811401367,M,,*72
$IIGLL,5027.618259,N,412.644330,W,124122,A*29
$IIDBT,0000.0,f,2.87009811401367,M,,*72
$IIGLL,5027.617097,N,412.642972,W,124123,A*2d
$IIDBT,0000.0,f,2.84637832641602,M,,*7b
$IIGLL,5027.615926,N,412.641654,W,124124,A*23
$IIDBT,0000.0,f,2.87009811401367,M,,*72
$IIGLL,5027.614568,N,412.640377,W,124125,A*20
$IIDBT,0000.0,f,2.87009811401367,M,,*72
$IIGLL,5027.613129,N,412.639120,W,124126,A*2b
$IIDBT,0000.0,f,2.87009811401367,M,,*72
$IIGLL,5027.611842,N,412.637857,W,124127,A*2b
$IIDBT,0000.0,f,2.87009811401367,M,,*72
$IIGLL,5027.610550,N,412.636484,W,124128,A*28
$IIDBT,0000.0,f,2.87009811401367,M,,*72
$IIGLL,5027.609277,N,412.635141,W,124129,A*2c
$IIDBT,0000.0,f,2.87009811401367,M,,*72
$IIGLL,5027.607954,N,412.633819,W,124130,A*22
$IIDBT,0000.0,f,2.87009811401367,M,,*72
$IIGLL,5027.606602,N,412.632451,W,124131,A*2f
$IIDBT,0000.0,f,2.87009811401367,M,,*72
$IIGLL,5027.605450,N,412.631274,W,124132,A*28
$IIDBT,0000.0,f,2.87009811401367,M,,*72
$IIGLL,5027.604168,N,412.629931,W,124133,A*25
$IIDBT,0000.0,f,2.87009811401367,M,,*72
$IIGLL,5027.602925,N,412.628619,W,124134,A*21
$IIDBT,0000.0,f,2.89381790161133,M,,*79
$IIGLL,5027.601743,N,412.627160,W,124135,A*2b
$IIDBT,0000.0,f,2.91754150390625,M,,*7a
$IIGLL,5027.600376,N,412.625516,W,124136,A*2c
$IIDBT,0000.0,f,2.91754150390625,M,,*7a
$IIGLL,5027.599214,N,412.623952,W,124137,A*21
$IIDBT,0000.0,f,2.91754150390625,M,,*7a
$IIGLL,5027.598148,N,412.622473,W,124138,A*2a
$IIDBT,0000.0,f,2.94126129150391,M,,*76
$IIGLL,5027.597087,N,412.621115,W,124139,A*20
$IIDBT,0000.0,f,2.94126129150391,M,,*76
$IIGLL,5027.596091,N,412.619732,W,124140,A*20
$IIDBT,0000.0,f,2.94126129150391,M,,*76
$IIGLL,5027.595004,N,412.618138,W,124141,A*23
$IIDBT,0000.0,f,2.96498107910156,M,,*7d
$IIGLL,5027.593963,N,412.616498,W,124142,A*2f
$IIDBT,0000.0,f,2.98870086669922,M,,*7b
$IIGLL,5027.592912,N,412.614854,W,124143,A*27
$IIDBT,0000.0,f,2.98870086669922,M,,*7b
$IIGLL,5027.591791,N,412.612918,W,124144,A*29
$IIDBT,0000.0,f,2.98870086669922,M,,*7b
$IIGLL,5027.591026,N,412.611318,W,124145,A*2a
$IIDBT,0000.0,f,3.03614044189453,M,,*78
$IIGLL,5027.590056,N,412.609272,W,124146,A*2b
$IIDBT,0000.0,f,3.05986022949219,M,,*76
$IIGLL,5027.589181,N,412.607672,W,124147,A*23
$IIDBT,0000.0,f,3.08358001708984,M,,*77
$IIGLL,5027.588291,N,412.605902,W,124148,A*25
$IIDBT,0000.0,f,3.1072998046875,M,,*4e
$IIGLL,5027.587420,N,412.604102,W,124149,A*2e
$IIDBT,0000.0,f,3.15473937988281,M,,*71
$IIGLL,5027.586535,N,412.602231,W,124150,A*27
$IIDBT,0000.0,f,3.20217895507813,M,,*70
$IIGLL,5027.585590,N,412.600174,W,124151,A*2a
$IIDBT,0000.0,f,3.22589874267578,M,,*7c
$IIGLL,5027.584961,N,412.598127,W,124152,A*2e
$IIDBT,0000.0,f,3.24961853027344,M,,*7a
$IIGLL,5027.584333,N,412.596447,W,124153,A*2f
$IIDBT,0000.0,f,3.24961853027344,M,,*7a
$IIGLL,5027.583402,N,412.594355,W,124154,A*2c
$IIDBT,0000.0,f,3.24961853027344,M,,*7a
$IIGLL,5027.582718,N,412.592625,W,124155,A*20
$IIDBT,0000.0,f,3.29705810546875,M,,*77
$IIGLL,5027.582069,N,412.590825,W,124156,A*2e
$IIDBT,0000.0,f,3.29705810546875,M,,*77
$IIGLL,5027.581335,N,412.588893,W,124157,A*22
$IIDBT,0000.0,f,3.32077789306641,M,,*7b
$IIGLL,5027.580676,N,412.587043,W,124158,A*24
$IIDBT,0000.0,f,3.32077789306641,M,,*7b
$IIGLL,5027.579992,N,412.584780,W,124159,A*2d
$IIDBT,0000.0,f,3.32077789306641,M,,*7b
$IIGLL,5027.579469,N,412.582652,W,124200,A*23
$IIDBT,0000.0,f,3.32077789306641,M,,*7b
$IIGLL,5027.578876,N,412.580460,W,124201,A*20
$IIDBT,0000.0,f,3.4156608581543,M,,*4c
$IIGLL,5027.578237,N,412.578533,W,124202,A*2c
$IIDBT,0000.0,f,3.43937683105469,M,,*72
$IIGLL,5027.577433,N,412.576220,W,124203,A*2b
$IIDBT,0000.0,f,3.4156608581543,M,,*4c
$IIGLL,5027.576754,N,412.574389,W,124204,A*2f
$IIDBT,0000.0,f,3.39193725585938,M,,*71
$IIGLL,5027.575934,N,412.572363,W,124205,A*27
$IIDBT,0000.0,f,3.39193725585938,M,,*71
$IIGLL,5027.574928,N,412.570431,W,124206,A*2a
$IIDBT,0000.0,f,3.39193725585938,M,,*71
$IIGLL,5027.573922,N,412.568354,W,124207,A*2b
$IIDBT,0000.0,f,3.4156608581543,M,,*4c
$IIGLL,5027.572876,N,412.566438,W,124208,A*26
$IIDBT,0000.0,f,3.43937683105469,M,,*72
$IIGLL,5027.571941,N,412.564874,W,124209,A*27
$IIDBT,0000.0,f,3.43937683105469,M,,*72
$IIGLL,5027.570548,N,412.562928,W,124210,A*25
$IIDBT,0000.0,f,3.43937683105469,M,,*72
$IIGLL,5027.569376,N,412.561490,W,124211,A*2a
$IIDBT,0000.0,f,3.4156608581543,M,,*4c
$IIGLL,5027.568124,N,412.560066,W,124212,A*21
$IIDBT,0000.0,f,3.4156608581543,M,,*4c
$IIGLL,5027.566771,N,412.558402,W,124213,A*25
$IIDBT,0000.0,f,3.43937683105469,M,,*72
$IIGLL,5027.565348,N,412.556848,W,124214,A*23
$IIDBT,0000.0,f,3.39193725585938,M,,*71
$IIGLL,5027.563894,N,412.555208,W,124215,A*23
$IIDBT,0000.0,f,3.39193725585938,M,,*71
$IIGLL,5027.562602,N,412.553684,W,124216,A*26
$IIDBT,0000.0,f,3.39193725585938,M,,*71
$IIGLL,5027.561319,N,412.552342,W,124217,A*25
$IIDBT,0000.0,f,3.46309661865234,M,,*7d
$IIGLL,5027.560137,N,412.551004,W,124218,A*27
$IIDBT,0000.0,f,3.51053619384766,M,,*7e
$IIGLL,5027.558800,N,412.549681,W,124219,A*22
$IIDBT,0000.0,f,3.46309661865234,M,,*7d
$IIGLL,5027.557442,N,412.548313,W,124220,A*22
$IIDBT,0000.0,f,3.4156608581543,M,,*4c
$IIGLL,5027.556049,N,412.546940,W,124221,A*2f
$IIDBT,0000.0,f,3.4156608581543,M,,*4c
$IIGLL,5027.554781,N,412.545512,W,124222,A*25
$IIDBT,0000.0,f,3.39193725585938,M,,*71
$IIGLL,5027.553444,N,412.544054,W,124223,A*2f
$IIDBT,0000.0,f,3.4156608581543,M,,*4c
$IIGLL,5027.552081,N,412.542847,W,124224,A*28
$IIDBT,0000.0,f,3.46309661865234,M,,*7d
$IIGLL,5027.550728,N,412.541579,W,124225,A*2c
$IIDBT,0000.0,f,3.43937683105469,M,,*72
$IIGLL,5027.549476,N,412.540362,W,124226,A*22
$IIDBT,0000.0,f,3.43937683105469,M,,*72
$IIGLL,5027.548188,N,412.539125,W,124227,A*29
$IIDBT,0000.0,f,3.43937683105469,M,,*72
$IIGLL,5027.546649,N,412.537767,W,124228,A*2c
$IIDBT,0000.0,f,3.43937683105469,M,,*72
$IIGLL,5027.545211,N,412.536490,W,124229,A*2d
$IIDBT,0000.0,f,3.43937683105469,M,,*72
$IIGLL,5027.543783,N,412.535112,W,124230,A*21
$IIDBT,0000.0,f,3.46309661865234,M,,*7d
$IIGLL,5027.542359,N,412.533925,W,124231,A*28
$IIDBT,0000.0,f,3.48681640625,M,,*4a
$IIGLL,5027.540876,N,412.532698,W,124232,A*27
$IIDBT,0000.0,f,3.48681640625,M,,*4a
$IIGLL,5027.539448,N,412.531737,W,124233,A*2e
$IIDBT,0000.0,f,3.48681640625,M,,*4a
$IIGLL,5027.538195,N,412.530656,W,124234,A*2a
$IIDBT,0000.0,f,3.46309661865234,M,,*7d
$IIGLL,5027.536712,N,412.529580,W,124235,A*2c
$IIDBT,0000.0,f,3.43937683105469,M,,*72
$IIGLL,5027.535102,N,412.528202,W,124236,A*27
$IIDBT,0000.0,f,3.43937683105469,M,,*72
$IIGLL,5027.533624,N,412.526904,W,124237,A*20
$IIDBT,0000.0,f,3.43937683105469,M,,*72
$IIGLL,5027.532190,N,412.525567,W,124238,A*2c
$IIDBT,0000.0,f,3.43937683105469,M,,*72
$IIGLL,5027.530782,N,412.524450,W,124239,A*2e
$IIDBT,0000.0,f,3.43937683105469,M,,*72
$IIGLL,5027.529364,N,412.523203,W,124240,A*23
$IIDBT,0000.0,f,3.46309661865234,M,,*7d
$IIGLL,5027.528041,N,412.522147,W,124241,A*25
$IIDBT,0000.0,f,3.46309661865234,M,,*7d
$IIGLL,5027.526558,N,412.521030,W,124242,A*27
$IIDBT,0000.0,f,3.43937683105469,M,,*72
$IIGLL,5027.524964,N,412.519587,W,124243,A*25
$IIDBT,0000.0,f,3.43937683105469,M,,*72
$IIGLL,5027.523490,N,412.518390,W,124244,A*22
$IIDBT,0000.0,f,3.4156608581543,M,,*4c
$IIGLL,5027.521996,N,412.517268,W,124245,A*23
$IIDBT,0000.0,f,3.4156608581543,M,,*4c
$IIGLL,5027.520503,N,412.516071,W,124246,A*2a
$IIDBT,0000.0,f,3.43937683105469,M,,*72
$IIGLL,5027.519095,N,412.514920,W,124247,A*24
$IIDBT,0000.0,f,3.4156608581543,M,,*4c
$IIGLL,5027.517701,N,412.513839,W,124248,A*21
$IIDBT,0000.0,f,3.4156608581543,M,,*4c
$IIGLL,5027.516233,N,412.512536,W,124249,A*26
$IIDBT,0000.0,f,3.4156608581543,M,,*4c
$IIGLL,5027.514553,N,412.511118,W,124250,A*26
$IIDBT,0000.0,f,3.4156608581543,M,,*4c
$IIGLL,5027.513070,N,412.509916,W,124251,A*2b
$IIDBT,0000.0,f,3.4156608581543,M,,*4c
$IIGLL,5027.511621,N,412.508694,W,124252,A*2c
$IIDBT,0000.0,f,3.4156608581543,M,,*4c
$IIGLL,5027.510183,N,412.507416,W,124253,A*24
$IIDBT,0000.0,f,3.4156608581543,M,,*4c
$IIGLL,5027.508679,N,412.506224,W,124254,A*2e
$IIDBT,0000.0,f,3.4156608581543,M,,*4c
$IIGLL,5027.507201,N,412.505073,W,124255,A*28
$IIDBT,0000.0,f,3.43937683105469,M,,*72
$IIGLL,5027.505838,N,412.504002,W,124256,A*2e
$IIDBT,0000.0,f,3.43937683105469,M,,*72
$IIGLL,5027.504264,N,412.502860,W,124257,A*27
$IIDBT,0000.0,f,3.4156608581543,M,,*4c
$IIGLL,5027.502589,N,412.501663,W,124258,A*24
$IIDBT,0000.0,f,3.39193725585938,M,,*71
$IIGLL,5027.501020,N,412.500531,W,124259,A*25
$IIDBT,0000.0,f,3.39193725585938,M,,*71
$IIGLL,5027.499466,N,412.499445,W,124300,A*2d
$IIDBT,0000.0,f,3.39193725585938,M,,*71
$IIGLL,5027.497962,N,412.498354,W,124301,A*2d
$IIDBT,0000.0,f,3.39193725585938,M,,*71
$IIGLL,5027.496438,N,412.497217,W,124302,A*24
$IIDBT,0000.0,f,3.36821746826172,M,,*79
$IIGLL,5027.494914,N,412.496030,W,124303,A*22
$IIDBT,0000.0,f,3.34449768066406,M,,*7f
$IIGLL,5027.493401,N,412.494864,W,124304,A*20
$IIDBT,0000.0,f,3.34449768066406,M,,*7f
$IIGLL,5027.492033,N,412.493772,W,124305,A*2a
$IIDBT,0000.0,f,3.36821746826172,M,,*79
$IIGLL,5027.490348,N,412.492460,W,124306,A*25
$IIDBT,0000.0,f,3.34449768066406,M,,*7f
$IIGLL,5027.488849,N,412.491243,W,124307,A*23
$IIDBT,0000.0,f,3.34449768066406,M,,*7f
$IIGLL,5027.487396,N,412.490036,W,124308,A*2b
$IIDBT,0000.0,f,3.34449768066406,M,,*7f
$IIGLL,5027.485937,N,412.488763,W,124309,A*27
$IIDBT,0000.0,f,3.34449768066406,M,,*7f
$IIGLL,5027.484504,N,412.487481,W,124310,A*22
$IIDBT,0000.0,f,3.34449768066406,M,,*7f
$IIGLL,5027.483005,N,412.486188,W,124311,A*2d
$IIDBT,0000.0,f,3.32077789306641,M,,*7b
$IIGLL,5027.481643,N,412.485107,W,124312,A*2c
$IIDBT,0000.0,f,3.34449768066406,M,,*7f
$IIGLL,5027.479958,N,412.483815,W,124313,A*23
$IIDBT,0000.0,f,3.34449768066406,M,,*7f
$IIGLL,5027.478469,N,412.482673,W,124314,A*25
$IIDBT,0000.0,f,3.34449768066406,M,,*7f
$IIGLL,5027.476976,N,412.481486,W,124315,A*22
$IIDBT,0000.0,f,3.32077789306641,M,,*7b
$IIGLL,5027.475482,N,412.480189,W,124316,A*2f
$IIDBT,0000.0,f,3.32077789306641,M,,*7b
$IIGLL,5027.473973,N,412.478901,W,124317,A*24
$IIDBT,0000.0,f,3.32077789306641,M,,*7b
$IIGLL,5027.472444,N,412.477548,W,124318,A*2d
$IIDBT,0000.0,f,3.32077789306641,M,,*7b
$IIGLL,5027.471122,N,412.476336,W,124319,A*24
$IIDBT,0000.0,f,3.32077789306641,M,,*7b
$IIGLL,5027.469492,N,412.474833,W,124320,A*25
$IIDBT,0000.0,f,3.32077789306641,M,,*7b
$IIGLL,5027.468029,N,412.473419,W,124321,A*22
$IIDBT,0000.0,f,3.32077789306641,M,,*7b
$IIGLL,5027.466505,N,412.472031,W,124322,A*2b
$IIDBT,0000.0,f,3.32077789306641,M,,*7b
$IIGLL,5027.464951,N,412.470829,W,124323,A*26
$IIDBT,0000.0,f,3.32077789306641,M,,*7b
$IIGLL,5027.463442,N,412.469637,W,124324,A*20
$IIDBT,0000.0,f,3.32077789306641,M,,*7b
$IIGLL,5027.461969,N,412.468435,W,124325,A*26
$IIDBT,0000.0,f,3.29705810546875,M,,*77
$IIGLL,5027.460455,N,412.467309,W,124326,A*21
$IIDBT,0000.0,f,3.32077789306641,M,,*7b
$IIGLL,5027.459092,N,412.466177,W,124327,A*2f
$IIDBT,0000.0,f,3.32077789306641,M,,*7b
$IIGLL,5027.457432,N,412.464799,W,124328,A*24
$IIDBT,0000.0,f,3.32077789306641,M,,*7b
$IIGLL,5027.455944,N,412.463567,W,124329,A*2f
$IIDBT,0000.0,f,3.32077789306641,M,,*7b
$IIGLL,5027.454395,N,412.462395,W,124330,A*2a
$IIDBT,0000.0,f,3.29705810546875,M,,*77
$IIGLL,5027.452886,N,412.461214,W,124331,A*2f
$IIDBT,0000.0,f,3.29705810546875,M,,*77
$IIGLL,5027.451272,N,412.459946,W,124332,A*29
$IIDBT,0000.0,f,3.29705810546875,M,,*77
$IIGLL,5027.449708,N,412.458739,W,124333,A*2e
$IIDBT,0000.0,f,3.27333831787109,M,,*76
$IIGLL,5027.448209,N,412.457532,W,124334,A*2a
$IIDBT,0000.0,f,3.27333831787109,M,,*76
$IIGLL,5027.446831,N,412.456436,W,124335,A*20
$IIDBT,0000.0,f,3.29705810546875,M,,*77
$IIGLL,5027.445151,N,412.455138,W,124336,A*27
$IIDBT,0000.0,f,3.27333831787109,M,,*76
$IIGLL,5027.443632,N,412.453987,W,124337,A*28
$IIDBT,0000.0,f,3.27333831787109,M,,*76
$IIGLL,5027.442078,N,412.452740,W,124338,A*2a
$IIDBT,0000.0,f,3.24961853027344,M,,*7a
$IIGLL,5027.440554,N,412.451412,W,124339,A*25
$IIDBT,0000.0,f,3.27333831787109,M,,*76
$IIGLL,5027.439061,N,412.450210,W,124340,A*23
$IIDBT,0000.0,f,3.24961853027344,M,,*7a
$IIGLL,5027.437663,N,412.449063,W,124341,A*26
$IIDBT,0000.0,f,3.27333831787109,M,,*76
$IIGLL,5027.435968,N,412.447761,W,124342,A*28
$IIDBT,0000.0,f,3.24961853027344,M,,*7a
$IIGLL,5027.434525,N,412.446584,W,124343,A*25
$IIDBT,0000.0,f,3.24961853027344,M,,*7a
$IIGLL,5027.433031,N,412.445342,W,124344,A*2a
$IIDBT,0000.0,f,3.24961853027344,M,,*7a
$IIGLL,5027.431542,N,412.444074,W,124345,A*2f
$IIDBT,0000.0,f,3.24961853027344,M,,*7a
$IIGLL,5027.430094,N,412.442923,W,124346,A*2e
$IIDBT,0000.0,f,3.24961853027344,M,,*7a
$IIGLL,5027.428555,N,412.441670,W,124347,A*24
$IIDBT,0000.0,f,3.24961853027344,M,,*7a
$IIGLL,5027.427041,N,412.440544,W,124348,A*21
$IIDBT,0000.0,f,3.24961853027344,M,,*7a
$IIGLL,5027.425693,N,412.439488,W,124349,A*24
$IIDBT,0000.0,f,3.24961853027344,M,,*7a
$IIGLL,5027.424029,N,412.438261,W,124350,A*2a
$IIDBT,0000.0,f,3.24961853027344,M,,*7a
$IIGLL,5027.422475,N,412.437300,W,124351,A*29
$IIDBT,0000.0,f,3.24961853027344,M,,*7a
$IIGLL,5027.420911,N,412.436239,W,124352,A*2d
$IIDBT,0000.0,f,3.24961853027344,M,,*7a
$IIGLL,5027.419357,N,412.435062,W,124353,A*21
$IIDBT,0000.0,f,3.24961853027344,M,,*7a
$IIGLL,5027.417828,N,412.433905,W,124354,A*25
$IIDBT,0000.0,f,3.24961853027344,M,,*7a
$IIGLL,5027.416284,N,412.432588,W,124355,A*21
$IIDBT,0000.0,f,3.24961853027344,M,,*7a
$IIGLL,5027.414755,N,412.431325,W,124356,A*2b
$IIDBT,0000.0,f,3.27333831787109,M,,*76
$IIGLL,5027.413181,N,412.430194,W,124357,A*2b
$IIDBT,0000.0,f,3.27333831787109,M,,*76
$IIGLL,5027.411627,N,412.429098,W,124358,A*28
$IIDBT,0000.0,f,3.24961853027344,M,,*7a
$IIGLL,5027.410078,N,412.427971,W,124359,A*24
$IIDBT,0000.0,f,3.24961853027344,M,,*7a
$IIGLL,5027.408519,N,412.426875,W,124400,A*20
$IIDBT,0000.0,f,3.27333831787109,M,,*76
$IIGLL,5027.406925,N,412.425849,W,124401,A*20
$IIDBT,0000.0,f,3.29705810546875,M,,*77
$IIGLL,5027.405366,N,412.424853,W,124402,A*27
$IIDBT,0000.0,f,3.32077789306641,M,,*7b
$IIGLL,5027.403907,N,412.423741,W,124403,A*26
$IIDBT,0000.0,f,3.32077789306641,M,,*7b
$IIGLL,5027.402353,N,412.422675,W,124404,A*2c
$IIDBT,0000.0,f,3.29705810546875,M,,*77
$IIGLL,5027.400970,N,412.421700,W,124405,A*24
$IIDBT,0000.0,f,3.32077789306641,M,,*7b
$IIGLL,5027.399200,N,412.420598,W,124406,A*2e
$IIDBT,0000.0,f,3.27333831787109,M,,*76
$IIGLL,5027.397580,N,412.419457,W,124407,A*26
$IIDBT,0000.0,f,3.24961853027344,M,,*7a
$IIGLL,5027.395936,N,412.418260,W,124408,A*29
$IIDBT,0000.0,f,3.24961853027344,M,,*7a
$IIGLL,5027.394286,N,412.417028,W,124409,A*28
$IIDBT,0000.0,f,3.24961853027344,M,,*7a
$IIGLL,5027.392632,N,412.415695,W,124410,A*2f
$IIDBT,0000.0,f,3.27333831787109,M,,*76
$IIGLL,5027.390997,N,412.414397,W,124411,A*2a
$IIDBT,0000.0,f,3.27333831787109,M,,*76
$IIGLL,5027.389373,N,412.413210,W,124412,A*28
$IIDBT,0000.0,f,3.27333831787109,M,,*76
$IIGLL,5027.387824,N,412.412295,W,124413,A*22
$IIDBT,0000.0,f,3.29705810546875,M,,*77
$IIGLL,5027.386003,N,412.411224,W,124414,A*20
$IIDBT,0000.0,f,3.29705810546875,M,,*77
$IIGLL,5027.384364,N,412.410344,W,124415,A*27
$IIDBT,0000.0,f,3.27333831787109,M,,*76
$IIGLL,5027.382659,N,412.409227,W,124416,A*25
$IIDBT,0000.0,f,3.27333831787109,M,,*76
$IIGLL,5027.380954,N,412.408071,W,124417,A*24
$IIDBT,0000.0,f,3.24961853027344,M,,*7a
$IIGLL,5027.379274,N,412.407095,W,124418,A*21
$IIDBT,0000.0,f,3.29705810546875,M,,*77
$IIGLL,5027.377529,N,412.406069,W,124419,A*23
$IIDBT,0000.0,f,3.27333831787109,M,,*76
$IIGLL,5027.375995,N,412.405189,W,124420,A*2c
$IIDBT,0000.0,f,3.27333831787109,M,,*76
$IIGLL,5027.374114,N,412.404098,W,124421,A*2d
$IIDBT,0000.0,f,3.27333831787109,M,,*76
$IIGLL,5027.372379,N,412.403112,W,124422,A*25
$IIDBT,0000.0,f,3.27333831787109,M,,*76
$IIGLL,5027.370670,N,412.402101,W,124423,A*29
$IIDBT,0000.0,f,3.27333831787109,M,,*76
$IIGLL,5027.368879,N,412.401186,W,124424,A*2c
$IIDBT,0000.0,f,3.27333831787109,M,,*76
$IIGLL,5027.367119,N,412.400205,W,124425,A*24
$IIDBT,0000.0,f,3.27333831787109,M,,*76
$IIGLL,5027.365283,N,412.399250,W,124426,A*22
$IIDBT,0000.0,f,3.29705810546875,M,,*77
$IIGLL,5027.363498,N,412.398390,W,124427,A*25
$IIDBT,0000.0,f,3.29705810546875,M,,*77
$IIGLL,5027.361894,N,412.397696,W,124428,A*24
$IIDBT,0000.0,f,3.29705810546875,M,,*77
$IIGLL,5027.359847,N,412.396896,W,124429,A*2f
$IIDBT,0000.0,f,3.27333831787109,M,,*76
$IIGLL,5027.358001,N,412.396101,W,124430,A*2b
$IIDBT,0000.0,f,3.27333831787109,M,,*76
$IIGLL,5027.356176,N,412.395392,W,124431,A*2e
$IIDBT,0000.0,f,3.29705810546875,M,,*77
$IIGLL,5027.354350,N,412.394583,W,124432,A*2e
$IIDBT,0000.0,f,3.29705810546875,M,,*77
$IIGLL,5027.352484,N,412.393788,W,124433,A*29
$IIDBT,0000.0,f,3.29705810546875,M,,*77
$IIGLL,5027.350648,N,412.393074,W,124434,A*2a
$IIDBT,0000.0,f,3.32077789306641,M,,*7b
$IIGLL,5027.348798,N,412.392224,W,124435,A*28
$IIDBT,0000.0,f,3.32077789306641,M,,*7b
$IIGLL,5027.347093,N,412.391520,W,124436,A*28
$IIDBT,0000.0,f,3.32077789306641,M,,*7b
$IIGLL,5027.345071,N,412.390821,W,124437,A*2a
$IIDBT,0000.0,f,3.34449768066406,M,,*7f
$IIGLL,5027.343185,N,412.390152,W,124438,A*24
$IIDBT,0000.0,f,3.36821746826172,M,,*79
$IIGLL,5027.341345,N,412.389528,W,124439,A*28
$IIDBT,0000.0,f,3.39193725585938,M,,*71
$IIGLL,5027.339449,N,412.388940,W,124440,A*21
$IIDBT,0000.0,f,3.4156608581543,M,,*4c
$IIGLL,5027.337527,N,412.388241,W,124441,A*2d
$IIDBT,0000.0,f,3.39193725585938,M,,*71
$IIGLL,5027.335687,N,412.387683,W,124442,A*20
$IIDBT,0000.0,f,3.39193725585938,M,,*71
$IIGLL,5027.334012,N,412.387230,W,124443,A*26
$IIDBT,0000.0,f,3.39193725585938,M,,*71
$IIGLL,5027.331995,N,412.386657,W,124444,A*26
$IIDBT,0000.0,f,3.43937683105469,M,,*72
$IIGLL,5027.330195,N,412.386134,W,124445,A*2c
$IIDBT,0000.0,f,3.39193725585938,M,,*71
$IIGLL,5027.328364,N,412.385545,W,124446,A*2b
$IIDBT,0000.0,f,3.36821746826172,M,,*79
$IIGLL,5027.326514,N,412.384891,W,124447,A*20
$IIDBT,0000.0,f,3.32077789306641,M,,*7b
$IIGLL,5027.324653,N,412.384338,W,124448,A*25
$IIDBT,0000.0,f,3.32077789306641,M,,*7b
$IIGLL,5027.322797,N,412.383790,W,124449,A*2a
$IIDBT,0000.0,f,3.32077789306641,M,,*7b
$IIGLL,5027.321112,N,412.383267,W,124450,A*27
$IIDBT,0000.0,f,3.29705810546875,M,,*77
$IIGLL,5027.319071,N,412.382689,W,124451,A*2c
$IIDBT,0000.0,f,3.29705810546875,M,,*77
$IIGLL,5027.317144,N,412.382246,W,124452,A*21
$IIDBT,0000.0,f,3.29705810546875,M,,*77
$IIGLL,5027.315263,N,412.381879,W,124453,A*21
$IIDBT,0000.0,f,3.27333831787109,M,,*76
$IIGLL,5027.313403,N,412.381441,W,124454,A*27
$IIDBT,0000.0,f,3.24961853027344,M,,*7a
$IIGLL,5027.311547,N,412.381034,W,124455,A*23
$IIDBT,0000.0,f,3.24961853027344,M,,*7a
$IIGLL,5027.309651,N,412.380632,W,124456,A*2c
$IIDBT,0000.0,f,3.27333831787109,M,,*76
$IIGLL,5027.307760,N,412.380280,W,124457,A*2d
$IIDBT,0000.0,f,3.24961853027344,M,,*7a
$IIGLL,5027.306105,N,412.379968,W,124458,A*2d
$IIDBT,0000.0,f,3.24961853027344,M,,*7a
$IIGLL,5027.304013,N,412.379540,W,124459,A*2e
$IIDBT,0000.0,f,3.24961853027344,M,,*7a
$IIGLL,5027.302158,N,412.379178,W,124500,A*24
$IIDBT,0000.0,f,3.24961853027344,M,,*7a
$IIGLL,5027.300262,N,412.378771,W,124501,A*23
$IIDBT,0000.0,f,3.24961853027344,M,,*7a
$IIGLL,5027.298431,N,412.378439,W,124502,A*2f
$IIDBT,0000.0,f,3.24961853027344,M,,*7a
$IIGLL,5027.296565,N,412.378137,W,124503,A*2b
$IIDBT,0000.0,f,3.24961853027344,M,,*7a
$IIGLL,5027.294679,N,412.377745,W,124504,A*2c
$IIDBT,0000.0,f,3.22589874267578,M,,*7c
$IIGLL,5027.292854,N,412.377529,W,124505,A*22
$IIDBT,0000.0,f,3.22589874267578,M,,*7c
$IIGLL,5027.291003,N,412.377272,W,124506,A*21
